

 ******  Newport Electric Boats, LLC  ****** 
EVMS GPS Logfile, generated with software version: 0.12.2



$GPRMC,161002.00,A,3345.25450,N,11806.71694,W,4.477,226.27,140522,,,A*7F
$GPVTG,226.27,T,,M,4.477,N,8.292,K,A*3F
$GPGGA,161002.00,3345.25450,N,11806.71694,W,1,09,0.96,-2.9,M,-33.1,M,,*42
$GPGSA,A,3,17,19,14,13,30,15,01,07,06,,,,1.66,0.96,1.35*05
$GPGSV,4,1,15,01,23,059,40,06,14,167,41,07,18,132,42,13,48,253,42*72
$GPGSV,4,2,15,14,54,041,37,15,25,289,46,17,87,098,39,19,64,210,31*75
$GPGSV,4,3,15,21,04,036,29,24,06,315,22,28,62,352,40,30,46,129,40*75
$GPGSV,4,4,15,46,49,199,37,48,50,192,41,51,49,161,34*49
$GPGLL,3345.25450,N,11806.71694,W,161002.00,A,A*7B
$GPRMC,161003.00,A,3345.25362,N,11806.71806,W,4.493,226.78,140522,,,A*7D
$GPVTG,226.78,T,,M,4.493,N,8.321,K,A*36
$GPGGA,161003.00,3345.25362,N,11806.71806,W,1,09,0.96,-2.8,M,-33.1,M,,*41
$GPGSA,A,3,17,19,14,13,30,15,01,07,06,,,,1.66,0.96,1.35*05
$GPGSV,4,1,15,01,23,059,37,06,14,167,40,07,18,132,40,13,48,253,40*73
$GPGSV,4,2,15,14,54,041,37,15,25,289,46,17,87,098,39,19,64,210,25*70
$GPGSV,4,3,15,21,04,036,28,24,06,315,38,28,62,352,39,30,46,129,43*72
$GPGSV,4,4,15,46,49,199,33,48,50,192,40,51,49,161,36*4E
$GPGLL,3345.25362,N,11806.71806,W,161003.00,A,A*79
$GPRMC,161004.00,A,3345.25277,N,11806.71920,W,4.545,227.69,140522,,,A*71
$GPVTG,227.69,T,,M,4.545,N,8.417,K,A*3F
$GPGGA,161004.00,3345.25277,N,11806.71920,W,1,09,0.96,-2.8,M,-33.1,M,,*46
$GPGSA,A,3,17,19,14,13,30,15,01,07,06,,,,1.66,0.96,1.35*05
$GPGSV,4,1,15,01,23,059,37,06,14,167,41,07,18,132,35,13,48,253,35*72
$GPGSV,4,2,15,14,54,041,36,15,25,289,46,17,87,098,39,19,64,210,30*75
$GPGSV,4,3,15,21,04,036,28,24,06,315,32,28,62,352,39,30,46,129,42*79
$GPGSV,4,4,15,46,49,199,34,48,50,192,41,51,49,161,38*46
$GPGLL,3345.25277,N,11806.71920,W,161004.00,A,A*7E
$GPRMC,161005.00,A,3345.25191,N,11806.72036,W,4.471,228.39,140522,,,A*7A
$GPVTG,228.39,T,,M,4.471,N,8.280,K,A*3B
$GPGGA,161005.00,3345.25191,N,11806.72036,W,1,09,0.96,-2.7,M,-33.1,M,,*4E
$GPGSA,A,3,17,19,14,13,30,15,01,07,06,,,,1.66,0.96,1.35*05
$GPGSV,4,1,15,01,23,059,39,06,14,167,38,07,18,132,46,13,48,253,39*7A
$GPGSV,4,2,15,14,54,041,38,15,25,289,46,17,87,098,39,19,64,210,30*7B
$GPGSV,4,3,15,21,04,036,28,24,06,315,38,28,62,352,40,30,46,129,45*7A
$GPGSV,4,4,15,46,49,199,36,48,50,192,41,51,49,161,30*4C
$GPGLL,3345.25191,N,11806.72036,W,161005.00,A,A*79
$GPRMC,161006.00,A,3345.25107,N,11806.72148,W,4.457,228.67,140522,,,A*71
$GPVTG,228.67,T,,M,4.457,N,8.255,K,A*3C
$GPGGA,161006.00,3345.25107,N,11806.72148,W,1,09,0.96,-2.6,M,-33.1,M,,*4B
$GPGSA,A,3,17,19,14,13,30,15,01,07,06,,,,1.66,0.96,1.35*05
$GPGSV,4,1,15,01,23,059,38,06,14,167,32,07,18,132,41,13,48,253,39*76
$GPGSV,4,2,15,14,54,041,36,15,25,289,48,17,87,098,39,19,64,210,31*7A
$GPGSV,4,3,15,21,04,036,28,24,06,315,34,28,62,352,39,30,46,129,42*7F
$GPGSV,4,4,15,46,49,199,36,48,50,192,40,51,49,161,30*4D
$GPGLL,3345.25107,N,11806.72148,W,161006.00,A,A*7D
$GPRMC,161007.00,A,3345.25024,N,11806.72259,W,4.420,228.35,140522,,,A*74
$GPVTG,228.35,T,,M,4.420,N,8.187,K,A*37
$GPGGA,161007.00,3345.25024,N,11806.72259,W,1,09,0.96,-2.6,M,-33.1,M,,*49
$GPGSA,A,3,17,19,14,13,30,15,01,07,06,,,,1.66,0.96,1.35*05
$GPGSV,4,1,15,01,23,059,36,06,14,167,36,07,18,132,44,13,48,253,40*77
$GPGSV,4,2,15,14,54,041,37,15,25,289,45,17,87,098,37,19,64,210,31*78
$GPGSV,4,3,15,21,04,036,27,24,06,315,34,28,62,352,41,30,46,129,43*7E
$GPGSV,4,4,15,46,49,199,37,48,50,192,39,51,49,161,33*41
$GPGLL,3345.25024,N,11806.72259,W,161007.00,A,A*7F
$GPRMC,161008.00,A,3345.24939,N,11806.72369,W,4.495,227.00,140522,,,A*7A
$GPVTG,227.00,T,,M,4.495,N,8.324,K,A*3B
$GPGGA,161008.00,3345.24939,N,11806.72369,W,1,09,0.96,-2.5,M,-33.1,M,,*43
$GPGSA,A,3,17,19,14,13,30,15,01,07,06,,,,1.66,0.96,1.35*05
$GPGSV,4,1,15,01,23,059,36,06,14,167,44,07,18,132,39,13,48,253,38*77
$GPGSV,4,2,15,14,54,041,34,15,25,289,45,17,87,098,37,19,64,210,30*7A
$GPGSV,4,3,15,21,04,036,27,24,06,315,28,28,62,352,41,30,46,129,42*72
$GPGSV,4,4,15,46,49,199,35,48,50,192,39,51,49,161,35*45
$GPGLL,3345.24939,N,11806.72369,W,161008.00,A,A*76
$GPRMC,161009.00,A,3345.24853,N,11806.72483,W,4.524,228.32,140522,,,A*70
$GPVTG,228.32,T,,M,4.524,N,8.379,K,A*36
$GPGGA,161009.00,3345.24853,N,11806.72483,W,1,09,0.96,-2.6,M,-33.1,M,,*4F
$GPGSA,A,3,17,19,14,13,30,15,01,07,06,,,,1.66,0.96,1.35*05
$GPGSV,4,1,15,01,23,059,37,06,14,167,42,07,18,132,41,13,48,253,38*7F
$GPGSV,4,2,15,14,54,041,39,15,25,289,48,17,87,098,37,19,64,210,34*7E
$GPGSV,4,3,15,21,04,036,32,24,06,315,32,28,62,352,40,30,46,129,41*7F
$GPGSV,4,4,15,46,49,199,36,48,50,192,40,51,49,161,36*4B
$GPGLL,3345.24853,N,11806.72483,W,161009.00,A,A*79
$GPRMC,161010.00,A,3345.24768,N,11806.72599,W,4.553,228.79,140522,,,A*7A
$GPVTG,228.79,T,,M,4.553,N,8.432,K,A*31
$GPGGA,161010.00,3345.24768,N,11806.72599,W,1,09,0.96,-2.6,M,-33.1,M,,*4A
$GPGSA,A,3,17,19,14,13,30,15,01,07,06,,,,1.66,0.96,1.35*05
$GPGSV,4,1,15,01,22,058,39,06,14,167,40,07,18,132,39,13,48,253,40*73
$GPGSV,4,2,15,14,54,041,37,15,25,289,45,17,87,098,38,19,64,210,34*72
$GPGSV,4,3,15,21,04,036,31,24,06,315,38,28,62,352,40,30,46,129,42*75
$GPGSV,4,4,15,46,49,199,37,48,50,192,38,51,49,161,34*47
$GPGLL,3345.24768,N,11806.72599,W,161010.00,A,A*7C
$GPRMC,161011.00,A,3345.24682,N,11806.72714,W,4.445,228.94,140522,,,A*7C
$GPVTG,228.94,T,,M,4.445,N,8.231,K,A*31
$GPGGA,161011.00,3345.24682,N,11806.72714,W,1,09,0.96,-2.4,M,-33.1,M,,*4B
$GPGSA,A,3,17,19,14,13,30,15,01,07,06,,,,1.66,0.96,1.35*05
$GPGSV,4,1,15,01,22,058,39,06,14,167,39,07,18,132,44,13,48,253,38*78
$GPGSV,4,2,15,14,54,041,36,15,25,289,47,17,87,098,39,19,64,210,34*70
$GPGSV,4,3,15,21,04,036,24,24,06,315,35,28,62,352,40,30,46,129,44*7A
$GPGSV,4,4,15,46,49,199,31,48,50,192,37,51,49,161,37*4D
$GPGLL,3345.24682,N,11806.72714,W,161011.00,A,A*7F
$GPRMC,161012.00,A,3345.24600,N,11806.72830,W,4.439,229.81,140522,,,A*72
$GPVTG,229.81,T,,M,4.439,N,8.222,K,A*3D
$GPGGA,161012.00,3345.24600,N,11806.72830,W,1,09,0.96,-2.3,M,-33.1,M,,*4C
$GPGSA,A,3,17,19,14,13,30,15,01,07,06,,,,1.66,0.96,1.35*05
$GPGSV,4,1,15,01,22,058,37,06,14,167,37,07,18,132,41,13,48,253,40*72
$GPGSV,4,2,15,14,54,041,38,15,25,289,46,17,87,098,39,19,64,210,32*79
$GPGSV,4,3,15,21,04,036,25,24,06,315,40,28,62,352,39,30,46,129,44*77
$GPGSV,4,4,15,46,49,199,34,48,50,192,38,51,49,161,33*43
$GPGLL,3345.24600,N,11806.72830,W,161012.00,A,A*7F
$GPRMC,161013.00,A,3345.24519,N,11806.72946,W,4.379,229.99,140522,,,A*72
$GPVTG,229.99,T,,M,4.379,N,8.110,K,A*35
$GPGGA,161013.00,3345.24519,N,11806.72946,W,1,09,0.96,-2.1,M,-33.1,M,,*44
$GPGSA,A,3,17,19,14,13,30,15,01,07,06,,,,1.66,0.96,1.35*05
$GPGSV,4,1,15,01,22,058,38,06,14,167,44,07,18,132,39,13,48,253,42*74
$GPGSV,4,2,15,14,54,041,38,15,25,289,47,17,87,098,37,19,64,210,33*77
$GPGSV,4,3,15,21,04,036,31,24,06,315,30,28,62,352,41,30,46,129,44*7A
$GPGSV,4,4,15,46,49,199,37,48,50,192,41,51,49,161,34*49
$GPGLL,3345.24519,N,11806.72946,W,161013.00,A,A*75
$GPRMC,161014.00,A,3345.24444,N,11806.73054,W,4.269,229.77,140522,,,A*77
$GPVTG,229.77,T,,M,4.269,N,7.906,K,A*35
$GPGGA,161014.00,3345.24444,N,11806.73054,W,1,09,0.96,-2.1,M,-33.1,M,,*41
$GPGSA,A,3,17,19,14,13,30,15,01,07,06,,,,1.66,0.96,1.35*05
$GPGSV,4,1,15,01,22,058,38,06,14,167,37,07,18,132,45,13,48,253,37*79
$GPGSV,4,2,15,14,54,041,39,15,25,289,47,17,87,098,37,19,64,210,34*71
$GPGSV,4,3,15,21,04,036,30,24,06,315,37,28,62,352,41,30,46,129,44*7C
$GPGSV,4,4,15,46,49,199,36,48,50,192,41,51,49,161,33*4F
$GPGLL,3345.24444,N,11806.73054,W,161014.00,A,A*70
$GPRMC,161015.00,A,3345.24365,N,11806.73165,W,4.305,229.80,140522,,,A*72
$GPVTG,229.80,T,,M,4.305,N,7.973,K,A*34
$GPGGA,161015.00,3345.24365,N,11806.73165,W,1,09,0.96,-2.1,M,-33.1,M,,*47
$GPGSA,A,3,17,19,14,13,30,15,01,07,06,,,,1.66,0.96,1.35*05
$GPGSV,4,1,15,01,22,058,38,06,14,167,39,07,18,132,42,13,48,253,40*70
$GPGSV,4,2,15,14,54,041,38,15,25,289,47,17,87,098,37,19,64,210,33*77
$GPGSV,4,3,15,21,04,036,28,24,06,315,29,28,62,352,41,30,46,129,45*7B
$GPGSV,4,4,15,46,49,199,34,48,50,192,39,51,49,161,30*41
$GPGLL,3345.24365,N,11806.73165,W,161015.00,A,A*76
$GPRMC,161016.00,A,3345.24284,N,11806.73275,W,4.214,229.13,140522,,,A*76
$GPVTG,229.13,T,,M,4.214,N,7.804,K,A*3E
$GPGGA,161016.00,3345.24284,N,11806.73275,W,1,09,0.96,-2.1,M,-33.1,M,,*48
$GPGSA,A,3,17,19,14,13,30,15,01,07,06,,,,1.66,0.96,1.35*05
$GPGSV,4,1,15,01,22,058,39,06,14,167,34,07,18,132,43,13,48,253,41*7C
$GPGSV,4,2,15,14,54,041,37,15,25,289,46,17,87,098,39,19,64,210,29*7C
$GPGSV,4,3,15,21,04,036,33,24,06,315,28,28,62,352,41,30,46,129,44*71
$GPGSV,4,4,15,46,49,199,36,48,50,192,40,51,49,161,34*49
$GPGLL,3345.24284,N,11806.73275,W,161016.00,A,A*79
$GPRMC,161017.00,A,3345.24207,N,11806.73383,W,4.111,229.93,140522,,,A*7A
$GPVTG,229.93,T,,M,4.111,N,7.614,K,A*3F
$GPGGA,161017.00,3345.24207,N,11806.73383,W,1,09,0.96,-2.0,M,-33.1,M,,*4B
$GPGSA,A,3,17,19,14,13,30,15,01,07,06,,,,1.66,0.96,1.35*05
$GPGSV,4,1,15,01,22,058,40,06,14,167,39,07,18,132,39,13,48,253,39*7D
$GPGSV,4,2,15,14,54,041,35,15,25,289,46,17,87,098,37,19,64,210,28*71
$GPGSV,4,3,15,21,04,036,33,24,06,315,33,28,62,352,41,30,46,129,44*7B
$GPGSV,4,4,15,46,49,199,36,48,50,192,41,51,49,161,32*4E
$GPGLL,3345.24207,N,11806.73383,W,161017.00,A,A*7B
$GPRMC,161018.00,A,3345.24131,N,11806.73490,W,4.105,229.46,140522,,,A*7B
$GPVTG,229.46,T,,M,4.105,N,7.602,K,A*35
$GPGGA,161018.00,3345.24131,N,11806.73490,W,1,09,0.96,-2.1,M,-33.1,M,,*46
$GPGSA,A,3,17,19,14,13,30,15,01,07,06,,,,1.66,0.96,1.35*05
$GPGSV,4,1,15,01,22,058,37,06,14,167,42,07,18,132,43,13,48,253,38*7D
$GPGSV,4,2,15,14,54,041,37,15,25,289,45,17,87,098,37,19,64,210,33*7A
$GPGSV,4,3,15,21,04,036,36,24,06,315,30,28,62,352,41,30,46,129,45*7C
$GPGSV,4,4,15,46,49,199,36,48,50,192,39,51,49,161,35*46
$GPGLL,3345.24131,N,11806.73490,W,161018.00,A,A*77
$GPRMC,161019.00,A,3345.24056,N,11806.73592,W,4.177,228.35,140522,,,A*79
$GPVTG,228.35,T,,M,4.177,N,7.736,K,A*33
$GPGGA,161019.00,3345.24056,N,11806.73592,W,1,09,0.96,-2.4,M,-33.1,M,,*41
$GPGSA,A,3,17,19,14,13,30,15,01,07,06,,,,1.66,0.96,1.35*05
$GPGSV,4,1,15,01,22,058,38,06,14,167,39,07,18,132,42,13,48,253,41*71
$GPGSV,4,2,15,14,54,041,34,15,25,289,49,17,87,098,37,19,64,210,36*70
$GPGSV,4,3,15,21,04,036,30,24,06,315,38,28,62,352,40,30,46,129,44*72
$GPGSV,4,4,15,46,49,199,35,48,50,192,41,51,49,161,34*4B
$GPGLL,3345.24056,N,11806.73592,W,161019.00,A,A*75
$GPRMC,161020.00,A,3345.23977,N,11806.73697,W,4.166,228.00,140522,,,A*7E
$GPVTG,228.00,T,,M,4.166,N,7.716,K,A*37
$GPGGA,161020.00,3345.23977,N,11806.73697,W,1,09,0.96,-2.3,M,-33.1,M,,*47
$GPGSA,A,3,17,19,14,13,30,15,01,07,06,,,,1.66,0.96,1.35*05
$GPGSV,4,1,15,01,22,058,38,06,14,167,41,07,18,132,43,13,48,253,41*7F
$GPGSV,4,2,15,14,54,041,36,15,25,289,45,17,87,098,38,19,64,210,33*74
$GPGSV,4,3,15,21,04,036,30,24,06,315,30,28,62,352,42,30,46,129,45*79
$GPGSV,4,4,15,46,49,199,38,48,50,192,39,51,49,161,35*48
$GPGLL,3345.23977,N,11806.73697,W,161020.00,A,A*74
$GPRMC,161021.00,A,3345.23896,N,11806.73803,W,4.138,227.18,140522,,,A*7F
$GPVTG,227.18,T,,M,4.138,N,7.663,K,A*39
$GPGGA,161021.00,3345.23896,N,11806.73803,W,1,09,0.96,-2.3,M,-33.1,M,,*4B
$GPGSA,A,3,17,19,14,13,30,15,01,07,06,,,,1.66,0.96,1.35*05
$GPGSV,4,1,15,01,22,058,38,06,14,167,41,07,18,132,41,13,48,253,39*72
$GPGSV,4,2,15,14,54,041,36,15,25,289,44,17,87,098,38,19,64,210,29*7E
$GPGSV,4,3,15,21,04,036,31,24,06,315,36,28,62,352,41,30,46,129,44*7C
$GPGSV,4,4,15,46,49,199,38,48,50,192,36,51,49,161,*41
$GPGLL,3345.23896,N,11806.73803,W,161021.00,A,A*78
$GPRMC,161022.00,A,3345.23816,N,11806.73901,W,4.142,225.29,140522,,,A*7A
$GPVTG,225.29,T,,M,4.142,N,7.671,K,A*37
$GPGGA,161022.00,3345.23816,N,11806.73901,W,1,09,0.96,-2.3,M,-33.1,M,,*43
$GPGSA,A,3,17,19,14,13,30,15,01,07,06,,,,1.66,0.96,1.35*05
$GPGSV,4,1,15,01,22,058,35,06,14,167,42,07,18,132,40,13,47,253,40*7C
$GPGSV,4,2,15,14,54,041,38,15,25,289,49,17,87,098,39,19,64,210,36*72
$GPGSV,4,3,15,21,04,036,31,24,06,315,35,28,62,352,41,30,46,129,45*7E
$GPGSV,4,4,15,46,49,199,35,48,50,192,41,51,49,161,*4C
$GPGLL,3345.23816,N,11806.73901,W,161022.00,A,A*70
$GPRMC,161023.00,A,3345.23733,N,11806.74000,W,4.037,225.34,140522,,,A*73
$GPVTG,225.34,T,,M,4.037,N,7.477,K,A*3C
$GPGGA,161023.00,3345.23733,N,11806.74000,W,1,09,0.96,-2.2,M,-33.1,M,,*44
$GPGSA,A,3,17,19,14,13,30,15,01,07,06,,,,1.66,0.96,1.35*05
$GPGSV,4,1,15,01,22,058,37,06,14,167,41,07,18,132,42,13,47,253,42*7D
$GPGSV,4,2,15,14,54,041,40,15,25,289,48,17,87,098,41,19,64,210,33*76
$GPGSV,4,3,15,21,04,036,26,24,06,315,41,28,62,352,42,30,46,129,46*7B
$GPGSV,4,4,15,46,49,199,38,48,50,192,38,51,49,161,*4F
$GPGLL,3345.23733,N,11806.74000,W,161023.00,A,A*76
$GPRMC,161024.00,A,3345.23647,N,11806.74102,W,4.141,225.48,140522,,,A*7E
$GPVTG,225.48,T,,M,4.141,N,7.668,K,A*3B
$GPGGA,161024.00,3345.23647,N,11806.74102,W,1,09,0.96,-2.0,M,-33.1,M,,*40
$GPGSA,A,3,17,19,14,13,30,15,01,07,06,,,,1.66,0.96,1.35*05
$GPGSV,4,1,15,01,22,058,36,06,14,167,40,07,18,132,36,13,47,253,34*7F
$GPGSV,4,2,15,14,54,041,43,15,25,289,48,17,87,098,38,19,64,210,40*7F
$GPGSV,4,3,15,21,04,036,33,24,06,315,36,28,62,352,43,30,46,129,44*7C
$GPGSV,4,4,15,46,49,199,42,48,50,192,39,51,49,161,*43
$GPGLL,3345.23647,N,11806.74102,W,161024.00,A,A*70
$GPRMC,161025.00,A,3345.23568,N,11806.74204,W,4.168,226.84,140522,,,A*7C
$GPVTG,226.84,T,,M,4.168,N,7.720,K,A*3E
$GPGGA,161025.00,3345.23568,N,11806.74204,W,1,09,0.96,-1.9,M,-33.1,M,,*40
$GPGSA,A,3,17,19,14,13,30,15,01,07,06,,,,1.66,0.96,1.35*05
$GPGSV,4,1,15,01,22,058,37,06,14,167,41,07,18,132,40,13,47,253,38*72
$GPGSV,4,2,15,14,54,041,44,15,25,289,46,17,87,098,39,19,64,210,41*76
$GPGSV,4,3,15,21,04,036,28,24,06,315,31,28,62,352,43,30,46,129,41*74
$GPGSV,4,4,15,46,49,199,38,48,50,192,40,51,49,161,*40
$GPGLL,3345.23568,N,11806.74204,W,161025.00,A,A*7A
$GPRMC,161026.00,A,3345.23497,N,11806.74313,W,4.097,231.55,140522,,,A*72
$GPVTG,231.55,T,,M,4.097,N,7.587,K,A*3A
$GPGGA,161026.00,3345.23497,N,11806.74313,W,1,09,0.96,-1.9,M,-33.1,M,,*45
$GPGSA,A,3,17,19,14,13,30,15,01,07,06,,,,1.66,0.96,1.35*05
$GPGSV,4,1,15,01,22,058,31,06,14,167,42,07,18,132,38,13,47,253,33*73
$GPGSV,4,2,15,14,54,041,40,15,25,289,45,17,87,091,41,19,64,210,35*74
$GPGSV,4,3,15,21,04,036,28,24,06,315,35,28,62,352,43,30,46,129,45*74
$GPGSV,4,4,15,46,49,199,41,48,50,192,38,51,49,161,*41
$GPGLL,3345.23497,N,11806.74313,W,161026.00,A,A*7F
$GPRMC,161027.00,A,3345.23438,N,11806.74435,W,4.008,238.92,140522,,,A*71
$GPVTG,238.92,T,,M,4.008,N,7.423,K,A*31
$GPGGA,161027.00,3345.23438,N,11806.74435,W,1,09,0.96,-1.7,M,-33.1,M,,*4C
$GPGSA,A,3,17,19,14,13,30,15,01,07,06,,,,1.66,0.96,1.35*05
$GPGSV,4,1,15,01,22,058,38,06,14,167,39,07,18,132,42,13,47,253,39*71
$GPGSV,4,2,15,14,54,041,42,15,25,289,46,17,87,091,41,19,64,210,39*79
$GPGSV,4,3,15,21,04,036,32,24,06,315,37,28,62,352,42,30,46,129,43*7A
$GPGSV,4,4,15,46,49,199,39,48,50,192,38,51,49,161,31*4C
$GPGLL,3345.23438,N,11806.74435,W,161027.00,A,A*78
$GPRMC,161028.00,A,3345.23394,N,11806.74559,W,4.002,245.02,140522,,,A*7D
$GPVTG,245.02,T,,M,4.002,N,7.412,K,A*3A
$GPGGA,161028.00,3345.23394,N,11806.74559,W,1,09,0.96,-1.7,M,-33.1,M,,*49
$GPGSA,A,3,17,19,14,13,30,15,01,07,06,,,,1.66,0.96,1.35*05
$GPGSV,4,1,15,01,22,058,37,06,14,167,41,07,18,132,43,13,47,253,40*7E
$GPGSV,4,2,15,14,54,041,43,15,25,289,46,17,87,091,39,19,64,210,35*7B
$GPGSV,4,3,15,21,04,036,32,24,06,315,36,28,62,352,41,30,46,129,42*79
$GPGSV,4,4,15,46,49,199,41,48,50,192,42,51,49,161,30*4F
$GPGLL,3345.23394,N,11806.74559,W,161028.00,A,A*7D
$GPRMC,161029.00,A,3345.23359,N,11806.74689,W,4.007,249.71,140522,,,A*7E
$GPVTG,249.71,T,,M,4.007,N,7.421,K,A*37
$GPGGA,161029.00,3345.23359,N,11806.74689,W,1,09,0.96,-1.6,M,-33.1,M,,*46
$GPGSA,A,3,17,19,14,13,30,15,01,07,06,,,,1.66,0.96,1.35*05
$GPGSV,4,1,15,01,22,058,34,06,14,167,42,07,18,132,43,13,47,253,40*7E
$GPGSV,4,2,15,14,54,041,42,15,25,289,47,17,87,091,39,19,64,210,32*7C
$GPGSV,4,3,15,21,04,036,28,24,06,315,35,28,62,352,43,30,46,129,42*73
$GPGSV,4,4,15,46,49,199,40,48,50,192,39,51,49,161,37*45
$GPGLL,3345.23359,N,11806.74689,W,161029.00,A,A*73
$GPRMC,161030.00,A,3345.23330,N,11806.74819,W,3.928,253.07,140522,,,A*77
$GPVTG,253.07,T,,M,3.928,N,7.274,K,A*38
$GPGGA,161030.00,3345.23330,N,11806.74819,W,1,09,0.96,-1.6,M,-33.1,M,,*46
$GPGSA,A,3,17,19,14,13,30,15,01,07,06,,,,1.66,0.96,1.35*05
$GPGSV,4,1,15,01,22,058,33,06,14,167,44,07,18,132,44,13,47,253,39*76
$GPGSV,4,2,15,14,54,041,43,15,25,289,47,17,87,091,39,19,64,210,31*7E
$GPGSV,4,3,15,21,04,035,28,24,06,315,32,28,62,352,43,30,46,129,43*76
$GPGSV,4,4,15,46,49,199,39,48,50,192,37,51,49,161,38*4A
$GPGLL,3345.23330,N,11806.74819,W,161030.00,A,A*73
$GPRMC,161031.00,A,3345.23302,N,11806.74947,W,4.033,253.47,140522,,,A*7D
$GPVTG,253.47,T,,M,4.033,N,7.468,K,A*33
$GPGGA,161031.00,3345.23302,N,11806.74947,W,1,09,0.96,-1.6,M,-33.1,M,,*4C
$GPGSA,A,3,17,19,14,13,30,15,01,07,06,,,,1.66,0.96,1.35*05
$GPGSV,4,1,15,01,22,058,38,06,14,167,42,07,18,132,43,13,47,253,41*73
$GPGSV,4,2,15,14,54,041,40,15,25,289,47,17,87,091,37,19,64,210,31*73
$GPGSV,4,3,15,21,04,035,30,24,06,315,35,28,62,352,44,30,46,129,41*7D
$GPGSV,4,4,15,46,49,199,39,48,50,192,39,51,49,161,37*4B
$GPGLL,3345.23302,N,11806.74947,W,161031.00,A,A*79
$GPRMC,161032.00,A,3345.23269,N,11806.75076,W,3.954,252.95,140522,,,A*79
$GPVTG,252.95,T,,M,3.954,N,7.323,K,A*3A
$GPGGA,161032.00,3345.23269,N,11806.75076,W,1,09,0.96,-1.6,M,-33.1,M,,*49
$GPGSA,A,3,17,19,14,13,30,15,01,07,06,,,,1.66,0.96,1.35*05
$GPGSV,4,1,15,01,22,058,36,06,14,167,42,07,18,132,37,13,47,253,39*71
$GPGSV,4,2,15,14,54,041,40,15,25,289,47,17,87,091,39,19,64,210,35*79
$GPGSV,4,3,15,21,04,035,23,24,06,315,33,28,62,352,44,30,46,129,43*7B
$GPGSV,4,4,15,46,49,199,37,48,50,192,34,51,49,161,34*4B
$GPGLL,3345.23269,N,11806.75076,W,161032.00,A,A*7C
$GPRMC,161033.00,A,3345.23235,N,11806.75203,W,3.923,252.97,140522,,,A*73
$GPVTG,252.97,T,,M,3.923,N,7.266,K,A*38
$GPGGA,161033.00,3345.23235,N,11806.75203,W,1,09,0.96,-1.5,M,-33.1,M,,*42
$GPGSA,A,3,17,19,14,13,30,15,01,07,06,,,,1.66,0.96,1.35*05
$GPGSV,4,1,15,01,22,058,34,06,14,167,41,07,18,132,31,13,47,253,39*76
$GPGSV,4,2,15,14,54,041,38,15,25,289,49,17,87,091,37,19,64,210,36*75
$GPGSV,4,3,15,21,04,035,24,24,06,315,36,28,62,352,43,30,46,129,43*7E
$GPGSV,4,4,15,46,49,199,37,48,50,192,37,51,49,161,33*4F
$GPGLL,3345.23235,N,11806.75203,W,161033.00,A,A*74
$GPRMC,161034.00,A,3345.23201,N,11806.75332,W,3.942,251.93,140522,,,A*70
$GPVTG,251.93,T,,M,3.942,N,7.301,K,A*38
$GPGGA,161034.00,3345.23201,N,11806.75332,W,1,09,0.96,-1.4,M,-33.1,M,,*40
$GPGSA,A,3,17,19,14,13,30,15,01,07,06,,,,1.66,0.96,1.35*05
$GPGSV,4,1,15,01,22,058,37,06,14,167,45,07,18,132,38,13,47,253,38*79
$GPGSV,4,2,15,14,54,041,42,15,25,289,48,17,87,091,38,19,64,210,41*76
$GPGSV,4,3,15,21,04,035,32,24,06,315,39,28,62,352,44,30,46,129,42*70
$GPGSV,4,4,15,46,49,199,39,48,50,192,41,51,49,161,33*40
$GPGLL,3345.23201,N,11806.75332,W,161034.00,A,A*77
$GPRMC,161035.00,A,3345.23164,N,11806.75454,W,3.907,249.68,140522,,,A*7A
$GPVTG,249.68,T,,M,3.907,N,7.236,K,A*31
$GPGGA,161035.00,3345.23164,N,11806.75454,W,1,09,0.96,-1.4,M,-33.1,M,,*46
$GPGSA,A,3,17,19,14,13,30,15,01,07,06,,,,1.66,0.96,1.35*05
$GPGSV,4,1,15,01,22,058,38,06,14,167,45,07,18,132,36,13,47,253,38*78
$GPGSV,4,2,15,14,54,041,43,15,25,289,47,17,87,091,39,19,64,210,41*79
$GPGSV,4,3,15,21,04,035,26,24,06,315,33,28,62,352,44,30,46,129,42*7F
$GPGSV,4,4,15,46,49,199,41,48,50,192,40,51,49,161,40*4A
$GPGLL,3345.23164,N,11806.75454,W,161035.00,A,A*71
$GPRMC,161036.00,A,3345.23121,N,11806.75576,W,3.937,247.00,140522,,,A*7A
$GPVTG,247.00,T,,M,3.937,N,7.291,K,A*3F
$GPGGA,161036.00,3345.23121,N,11806.75576,W,1,09,0.96,-1.3,M,-33.1,M,,*42
$GPGSA,A,3,17,19,14,13,30,15,01,07,06,,,,1.66,0.96,1.35*05
$GPGSV,4,1,15,01,22,058,38,06,14,167,44,07,18,132,42,13,47,253,33*71
$GPGSV,4,2,15,14,54,041,42,15,25,289,49,17,87,091,39,19,64,210,41*76
$GPGSV,4,3,15,21,04,035,28,24,06,315,40,28,62,352,43,30,46,129,42*72
$GPGSV,4,4,15,46,49,199,42,48,50,192,40,51,49,161,32*4C
$GPGLL,3345.23121,N,11806.75576,W,161036.00,A,A*72
$GPRMC,161037.00,A,3345.23069,N,11806.75694,W,3.886,243.72,140522,,,A*73
$GPVTG,243.72,T,,M,3.886,N,7.196,K,A*31
$GPGGA,161037.00,3345.23069,N,11806.75694,W,1,09,0.96,-1.3,M,-33.1,M,,*41
$GPGSA,A,3,17,19,14,13,30,15,01,07,06,,,,1.66,0.96,1.35*05
$GPGSV,4,1,15,01,22,058,36,06,14,167,43,07,18,132,44,13,47,253,38*75
$GPGSV,4,2,15,14,54,041,41,15,25,289,48,17,87,091,38,19,64,210,40*74
$GPGSV,4,3,15,21,04,035,28,24,06,315,35,28,62,352,43,30,46,129,42*70
$GPGSV,4,4,15,46,49,199,40,48,50,192,38,51,49,161,36*45
$GPGLL,3345.23069,N,11806.75694,W,161037.00,A,A*71
$GPRMC,161038.00,A,3345.23013,N,11806.75809,W,3.964,241.06,140522,,,A*77
$GPVTG,241.06,T,,M,3.964,N,7.341,K,A*35
$GPGGA,161038.00,3345.23013,N,11806.75809,W,1,09,0.96,-1.3,M,-33.1,M,,*49
$GPGSA,A,3,17,19,14,13,30,15,01,07,06,,,,1.66,0.96,1.35*05
$GPGSV,4,1,15,01,22,058,37,06,14,167,39,07,18,132,45,13,47,253,41*76
$GPGSV,4,2,15,14,54,041,38,15,25,289,46,17,87,091,38,19,64,210,36*75
$GPGSV,4,3,15,21,04,035,26,24,06,315,34,28,62,352,43,30,46,129,45*78
$GPGSV,4,4,15,46,49,199,36,48,50,192,39,51,49,161,38*4B
$GPGLL,3345.23013,N,11806.75809,W,161038.00,A,A*79
$GPRMC,161039.00,A,3345.22952,N,11806.75924,W,4.085,238.07,140522,,,A*7B
$GPVTG,238.07,T,,M,4.085,N,7.565,K,A*3B
$GPGGA,161039.00,3345.22952,N,11806.75924,W,1,09,0.96,-1.2,M,-33.1,M,,*4A
$GPGSA,A,3,17,19,14,13,30,15,01,07,06,,,,1.66,0.96,1.35*05
$GPGSV,4,1,15,01,22,058,39,06,14,167,35,07,18,132,45,13,47,253,41*74
$GPGSV,4,2,15,14,54,041,33,15,25,289,46,17,87,091,38,19,64,210,28*71
$GPGSV,4,3,15,21,04,035,25,24,06,315,37,28,62,352,40,30,45,129,45*78
$GPGSV,4,4,15,46,49,199,40,48,50,192,42,51,49,161,35*4B
$GPGLL,3345.22952,N,11806.75924,W,161039.00,A,A*7B
$GPRMC,161040.00,A,3345.22883,N,11806.76038,W,4.139,235.31,140522,,,A*71
$GPVTG,235.31,T,,M,4.139,N,7.666,K,A*35
$GPGGA,161040.00,3345.22883,N,11806.76038,W,1,09,0.96,-1.2,M,-33.1,M,,*4E
$GPGSA,A,3,17,19,14,13,30,15,01,07,06,,,,1.66,0.96,1.36*06
$GPGSV,4,1,15,01,22,058,37,06,14,167,34,07,18,132,48,13,47,253,40*77
$GPGSV,4,2,15,14,54,041,33,15,25,289,44,17,87,091,39,19,64,210,28*72
$GPGSV,4,3,15,21,04,035,32,24,06,315,39,28,62,352,42,30,45,129,40*77
$GPGSV,4,4,15,46,49,199,42,48,50,192,38,51,49,161,44*42
$GPGLL,3345.22883,N,11806.76038,W,161040.00,A,A*7F
$GPRMC,161041.00,A,3345.22808,N,11806.76147,W,4.193,231.08,140522,,,A*74
$GPVTG,231.08,T,,M,4.193,N,7.765,K,A*39
$GPGGA,161041.00,3345.22808,N,11806.76147,W,1,09,0.96,-1.2,M,-33.1,M,,*45
$GPGSA,A,3,17,19,14,13,30,15,01,07,06,,,,1.66,0.96,1.36*06
$GPGSV,4,1,15,01,22,058,41,06,14,167,39,07,18,132,46,13,47,253,35*77
$GPGSV,4,2,15,14,54,041,40,15,25,289,41,17,87,091,39,19,64,210,33*79
$GPGSV,4,3,15,21,04,035,26,24,06,315,39,28,62,352,43,30,45,129,35*71
$GPGSV,4,4,15,46,49,199,44,48,50,192,39,51,49,161,42*43
$GPGLL,3345.22808,N,11806.76147,W,161041.00,A,A*74
$GPRMC,161042.00,A,3345.22725,N,11806.76252,W,4.500,226.22,140522,,,A*70
$GPVTG,226.22,T,,M,4.500,N,8.334,K,A*36
$GPGGA,161042.00,3345.22725,N,11806.76252,W,1,09,0.96,-1.3,M,-33.1,M,,*40
$GPGSA,A,3,17,19,14,13,30,15,01,07,06,,,,1.66,0.96,1.36*06
$GPGSV,4,1,15,01,22,058,41,06,14,167,40,07,18,132,50,13,47,253,42*7E
$GPGSV,4,2,15,14,54,041,40,15,25,289,38,17,87,091,40,19,64,210,39*73
$GPGSV,4,3,15,21,04,035,34,24,06,315,35,28,62,352,42,30,45,129,37*7D
$GPGSV,4,4,15,46,49,199,36,48,50,192,41,51,49,161,43*48
$GPGLL,3345.22725,N,11806.76252,W,161042.00,A,A*70
$GPRMC,161043.00,A,3345.22632,N,11806.76347,W,4.537,219.85,140522,,,A*76
$GPVTG,219.85,T,,M,4.537,N,8.402,K,A*31
$GPGGA,161043.00,3345.22632,N,11806.76347,W,1,09,0.96,-1.4,M,-33.1,M,,*44
$GPGSA,A,3,17,19,14,13,30,15,01,07,06,,,,1.66,0.96,1.36*06
$GPGSV,4,1,15,01,22,058,35,06,14,167,38,07,18,132,50,13,47,253,43*73
$GPGSV,4,2,15,14,54,041,41,15,25,289,43,17,87,091,40,19,64,210,42*72
$GPGSV,4,3,15,21,04,035,21,24,06,315,35,28,62,352,41,30,45,129,40*7A
$GPGSV,4,4,15,46,49,199,29,48,50,192,40,51,49,161,39*4A
$GPGLL,3345.22632,N,11806.76347,W,161043.00,A,A*73
$GPRMC,161044.00,A,3345.22530,N,11806.76432,W,4.644,214.87,140522,,,A*7D
$GPVTG,214.87,T,,M,4.644,N,8.602,K,A*3B
$GPGGA,161044.00,3345.22530,N,11806.76432,W,1,09,0.96,-1.5,M,-33.1,M,,*46
$GPGSA,A,3,17,19,14,13,30,15,01,07,06,,,,1.66,0.96,1.36*06
$GPGSV,4,1,15,01,22,058,29,06,14,167,40,07,18,132,48,13,47,253,47*7C
$GPGSV,4,2,15,14,54,041,40,15,25,289,43,17,87,091,40,19,64,210,40*71
$GPGSV,4,3,15,21,04,035,30,24,06,315,34,28,62,352,41,30,45,129,40*7B
$GPGSV,4,4,15,46,49,199,29,48,50,192,34,51,49,161,42*45
$GPGLL,3345.22530,N,11806.76432,W,161044.00,A,A*70
$GPRMC,161045.00,A,3345.22413,N,11806.76510,W,4.800,208.48,140522,,,A*7D
$GPVTG,208.48,T,,M,4.800,N,8.889,K,A*36
$GPGGA,161045.00,3345.22413,N,11806.76510,W,1,09,0.96,-1.5,M,-33.1,M,,*46
$GPGSA,A,3,17,19,14,13,30,15,01,07,06,,,,1.66,0.96,1.36*06
$GPGSV,4,1,15,01,22,058,32,06,14,167,33,07,18,132,47,13,47,253,48*72
$GPGSV,4,2,15,14,54,041,33,15,25,289,44,17,87,091,39,19,64,210,40*7C
$GPGSV,4,3,15,21,04,035,30,24,06,315,31,28,62,352,39,30,45,129,43*72
$GPGSV,4,4,15,46,49,199,30,48,50,192,29,51,49,161,41*42
$GPGLL,3345.22413,N,11806.76510,W,161045.00,A,A*70
$GPRMC,161046.00,A,3345.22291,N,11806.76575,W,4.832,203.66,140522,,,A*77
$GPVTG,203.66,T,,M,4.832,N,8.948,K,A*3C
$GPGGA,161046.00,3345.22291,N,11806.76575,W,1,09,0.96,-1.6,M,-33.1,M,,*49
$GPGSA,A,3,17,19,14,13,30,15,01,07,06,,,,1.66,0.96,1.36*06
$GPGSV,4,1,15,01,22,058,33,06,14,167,36,07,18,132,48,13,47,253,46*77
$GPGSV,4,2,15,14,54,041,36,15,25,289,43,17,87,091,39,19,64,210,37*7E
$GPGSV,4,3,15,21,04,035,29,24,06,315,31,28,62,352,41,30,45,129,43*75
$GPGSV,4,4,15,46,49,199,32,48,50,192,32,51,49,161,41*4A
$GPGLL,3345.22291,N,11806.76575,W,161046.00,A,A*7C
$GPRMC,161047.00,A,3345.22164,N,11806.76629,W,4.928,198.55,140522,,,A*7E
$GPVTG,198.55,T,,M,4.928,N,9.126,K,A*36
$GPGGA,161047.00,3345.22164,N,11806.76629,W,1,09,0.96,-1.6,M,-33.1,M,,*4B
$GPGSA,A,3,17,19,14,13,30,15,01,07,06,,,,1.66,0.96,1.36*06
$GPGSV,4,1,15,01,22,058,38,06,14,167,28,07,18,132,49,13,47,253,47*73
$GPGSV,4,2,15,14,54,041,38,15,25,289,44,17,87,091,40,19,64,210,35*7B
$GPGSV,4,3,15,21,04,035,33,24,06,315,34,28,62,352,43,30,45,129,39*74
$GPGSV,4,4,15,46,49,199,,48,50,192,30,51,49,161,38*47
$GPGLL,3345.22164,N,11806.76629,W,161047.00,A,A*7E
$GPRMC,161048.00,A,3345.22028,N,11806.76670,W,5.036,193.48,140522,,,A*74
$GPVTG,193.48,T,,M,5.036,N,9.327,K,A*35
$GPGGA,161048.00,3345.22028,N,11806.76670,W,1,09,0.96,-1.7,M,-33.1,M,,*40
$GPGSA,A,3,17,19,14,13,30,15,01,07,06,,,,1.66,0.96,1.36*06
$GPGSV,4,1,15,01,22,058,36,06,14,167,28,07,18,132,50,13,47,253,47*75
$GPGSV,4,2,15,14,54,041,40,15,25,289,44,17,87,091,41,19,64,210,35*75
$GPGSV,4,3,15,21,04,035,29,24,06,315,29,28,62,352,43,30,45,129,43*7E
$GPGSV,4,4,15,46,49,199,,48,50,192,29,51,49,161,38*4F
$GPGLL,3345.22028,N,11806.76670,W,161048.00,A,A*74
$GPRMC,161049.00,A,3345.21889,N,11806.76704,W,5.224,191.08,140522,,,A*70
$GPVTG,191.08,T,,M,5.224,N,9.676,K,A*33
$GPGGA,161049.00,3345.21889,N,11806.76704,W,1,09,0.96,-1.7,M,-33.1,M,,*43
$GPGSA,A,3,17,19,14,13,30,15,01,07,06,,,,1.66,0.96,1.36*06
$GPGSV,4,1,15,01,22,058,40,06,14,167,28,07,18,132,48,13,47,253,49*73
$GPGSV,4,2,15,14,54,041,40,15,25,289,44,17,87,091,39,19,64,210,35*7A
$GPGSV,4,3,15,21,04,035,33,24,06,315,29,28,62,352,42,30,45,129,46*71
$GPGSV,4,4,15,46,49,199,,48,50,192,29,51,49,161,38*4F
$GPGLL,3345.21889,N,11806.76704,W,161049.00,A,A*77
$GPRMC,161050.00,A,3345.21749,N,11806.76736,W,5.357,191.22,140522,,,A*77
$GPVTG,191.22,T,,M,5.357,N,9.921,K,A*33
$GPGGA,161050.00,3345.21749,N,11806.76736,W,1,09,1.09,-1.7,M,-33.1,M,,*4E
$GPGSA,A,3,17,19,14,13,30,15,01,07,06,,,,1.87,1.09,1.52*0C
$GPGSV,4,1,15,01,22,058,38,06,14,167,25,07,18,132,49,13,47,253,47*7E
$GPGSV,4,2,15,14,54,041,40,15,25,289,44,17,87,091,39,19,64,210,38*77
$GPGSV,4,3,15,21,04,035,31,24,06,315,28,28,62,352,42,30,45,129,45*71
$GPGSV,4,4,15,46,49,199,,48,50,192,28,51,49,161,38*4E
$GPGLL,3345.21749,N,11806.76736,W,161050.00,A,A*7D
$GPRMC,161051.00,A,3345.21608,N,11806.76770,W,5.416,191.24,140522,,,A*74
$GPVTG,191.24,T,,M,5.416,N,10.031,K,A*07
$GPGGA,161051.00,3345.21608,N,11806.76770,W,1,09,1.09,-1.8,M,-33.1,M,,*46
$GPGSA,A,3,17,19,14,13,30,15,01,07,06,,,,1.87,1.09,1.52*0C
$GPGSV,4,1,15,01,22,058,39,06,14,167,24,07,18,132,50,13,47,253,47*76
$GPGSV,4,2,15,14,54,041,41,15,25,289,46,17,87,091,38,19,64,210,37*7A
$GPGSV,4,3,15,21,04,035,35,24,06,315,28,28,62,352,41,30,45,129,45*76
$GPGSV,4,4,15,46,49,199,,48,50,192,28,51,49,161,38*4E
$GPGLL,3345.21608,N,11806.76770,W,161051.00,A,A*7A
$GPRMC,161052.00,A,3345.21464,N,11806.76804,W,5.455,191.20,140522,,,A*70
$GPVTG,191.20,T,,M,5.455,N,10.103,K,A*04
$GPGGA,161052.00,3345.21464,N,11806.76804,W,1,09,1.09,-1.8,M,-33.1,M,,*41
$GPGSA,A,3,17,19,14,13,30,15,01,07,06,,,,1.87,1.09,1.52*0C
$GPGSV,4,1,15,01,22,058,37,06,14,167,21,07,18,132,48,13,47,253,46*75
$GPGSV,4,2,15,14,54,041,39,15,25,289,44,17,87,091,38,19,64,210,35*75
$GPGSV,4,3,15,21,04,035,32,24,06,315,27,28,62,352,41,30,45,129,42*79
$GPGSV,4,4,15,46,49,199,,48,50,192,33,51,49,161,38*44
$GPGLL,3345.21464,N,11806.76804,W,161052.00,A,A*7D
$GPRMC,161053.00,A,3345.21319,N,11806.76836,W,5.351,190.65,140522,,,A*7E
$GPVTG,190.65,T,,M,5.351,N,9.910,K,A*35
$GPGGA,161053.00,3345.21319,N,11806.76836,W,1,09,0.96,-1.8,M,-33.1,M,,*4B
$GPGSA,A,3,17,19,14,13,30,15,01,07,06,,,,1.66,0.96,1.36*06
$GPGSV,4,1,15,01,22,058,37,06,14,167,24,07,18,132,49,13,47,253,46*71
$GPGSV,4,2,15,14,54,041,35,15,25,289,44,17,87,091,39,19,64,210,36*7B
$GPGSV,4,3,15,21,04,035,35,24,06,315,28,28,62,352,41,30,45,129,44*77
$GPGSV,4,4,15,46,49,199,,48,50,192,30,51,49,161,36*49
$GPGLL,3345.21319,N,11806.76836,W,161053.00,A,A*70
$GPRMC,161054.00,A,3345.21177,N,11806.76871,W,5.325,191.95,140522,,,A*7D
$GPVTG,191.95,T,,M,5.325,N,9.862,K,A*3C
$GPGGA,161054.00,3345.21177,N,11806.76871,W,1,09,0.96,-1.8,M,-33.1,M,,*45
$GPGSA,A,3,17,19,14,13,30,15,01,07,06,,,,1.66,0.96,1.36*06
$GPGSV,4,1,15,01,22,058,37,06,14,167,26,07,18,132,48,13,47,253,47*73
$GPGSV,4,2,15,14,54,041,37,15,25,289,44,17,87,091,39,19,64,210,37*78
$GPGSV,4,3,15,21,04,035,35,24,06,315,28,28,62,352,41,30,45,129,42*71
$GPGSV,4,4,15,46,49,199,,48,50,192,31,51,49,161,34*4A
$GPGLL,3345.21177,N,11806.76871,W,161054.00,A,A*7E
$GPRMC,161055.00,A,3345.21037,N,11806.76907,W,5.298,192.22,140522,,,A*71
$GPVTG,192.22,T,,M,5.298,N,9.812,K,A*33
$GPGGA,161055.00,3345.21037,N,11806.76907,W,1,09,0.96,-1.8,M,-33.1,M,,*41
$GPGSA,A,3,17,19,14,13,30,15,01,07,06,,,,1.66,0.96,1.36*06
$GPGSV,4,1,15,01,22,058,34,06,14,167,25,07,18,132,49,13,47,253,46*73
$GPGSV,4,2,15,14,54,041,39,15,25,289,43,17,87,091,39,19,64,210,34*72
$GPGSV,4,3,15,21,04,035,34,24,06,315,27,28,62,352,41,30,45,129,43*7E
$GPGSV,4,4,15,46,49,199,,48,50,192,32,51,49,161,38*45
$GPGLL,3345.21037,N,11806.76907,W,161055.00,A,A*7A
$GPRMC,161056.00,A,3345.20898,N,11806.76944,W,5.184,192.59,140522,,,A*7B
$GPVTG,192.59,T,,M,5.184,N,9.600,K,A*3C
$GPGGA,161056.00,3345.20898,N,11806.76944,W,1,09,0.96,-1.8,M,-33.1,M,,*49
$GPGSA,A,3,17,19,14,13,30,15,01,07,06,,,,1.66,0.96,1.36*06
$GPGSV,4,1,15,01,22,058,37,06,14,167,26,07,18,132,47,13,47,253,46*7D
$GPGSV,4,2,15,14,54,041,35,15,25,289,45,17,87,091,39,19,64,210,35*79
$GPGSV,4,3,15,21,04,035,36,24,06,315,29,28,62,352,41,30,45,129,44*75
$GPGSV,4,4,15,46,49,199,,48,50,192,33,51,49,161,39*45
$GPGLL,3345.20898,N,11806.76944,W,161056.00,A,A*72
$GPRMC,161057.00,A,3345.20762,N,11806.76980,W,5.167,192.62,140522,,,A*7D
$GPVTG,192.62,T,,M,5.167,N,9.569,K,A*35
$GPGGA,161057.00,3345.20762,N,11806.76980,W,1,09,0.96,-1.9,M,-33.1,M,,*4B
$GPGSA,A,3,17,19,14,13,30,15,01,07,06,,,,1.66,0.96,1.36*06
$GPGSV,4,1,15,01,22,058,33,06,14,167,25,07,18,132,48,13,47,253,47*74
$GPGSV,4,2,15,14,54,041,41,15,25,289,42,17,87,091,38,19,64,210,35*7C
$GPGSV,4,3,15,21,04,035,34,24,06,315,30,28,62,352,40,30,45,129,41*7B
$GPGSV,4,4,15,46,49,199,,48,50,192,33,51,49,161,36*4A
$GPGLL,3345.20762,N,11806.76980,W,161057.00,A,A*71
$GPRMC,161058.00,A,3345.20626,N,11806.77019,W,5.116,193.42,140522,,,A*7E
$GPVTG,193.42,T,,M,5.116,N,9.475,K,A*3C
$GPGGA,161058.00,3345.20626,N,11806.77019,W,1,09,0.96,-1.9,M,-33.1,M,,*4D
$GPGSA,A,3,17,19,14,13,30,15,01,07,06,,,,1.66,0.96,1.36*06
$GPGSV,4,1,15,01,22,058,36,06,14,167,32,07,18,132,46,13,47,253,46*78
$GPGSV,4,2,15,14,54,041,35,15,25,289,43,17,87,091,39,19,64,210,36*7C
$GPGSV,4,3,15,21,04,035,34,24,06,315,29,28,62,352,41,30,45,129,44*77
$GPGSV,4,4,15,46,49,199,,48,50,192,33,51,49,161,38*44
$GPGLL,3345.20626,N,11806.77019,W,161058.00,A,A*77
$GPRMC,161059.00,A,3345.20492,N,11806.77057,W,5.042,193.06,140522,,,A*78
$GPVTG,193.06,T,,M,5.042,N,9.337,K,A*3D
$GPGGA,161059.00,3345.20492,N,11806.77057,W,1,09,0.96,-1.9,M,-33.1,M,,*4B
$GPGSA,A,3,17,19,14,13,30,15,01,07,06,,,,1.66,0.96,1.36*06
$GPGSV,4,1,15,01,22,058,34,06,14,167,26,07,18,132,48,13,47,253,46*71
$GPGSV,4,2,15,14,54,041,37,15,25,289,44,17,87,091,38,19,64,210,36*78
$GPGSV,4,3,15,21,04,035,33,24,06,315,31,28,62,352,41,30,45,129,42*7F
$GPGSV,4,4,15,46,49,199,,48,50,192,28,51,49,161,36*40
$GPGLL,3345.20492,N,11806.77057,W,161059.00,A,A*71
$GPRMC,161100.00,A,3345.20360,N,11806.77094,W,4.994,192.93,140522,,,A*7E
$GPVTG,192.93,T,,M,4.994,N,9.248,K,A*3A
$GPGGA,161100.00,3345.20360,N,11806.77094,W,1,09,0.96,-2.0,M,-33.1,M,,*49
$GPGSA,A,3,17,19,14,13,30,15,01,07,06,,,,1.66,0.96,1.36*06
$GPGSV,4,1,15,01,22,058,34,06,15,167,26,07,18,132,47,13,47,253,47*7E
$GPGSV,4,2,15,14,54,041,35,15,25,289,43,17,87,091,38,19,64,210,36*7D
$GPGSV,4,3,15,21,04,035,33,24,06,315,31,28,62,352,41,30,45,129,44*79
$GPGSV,4,4,15,46,49,199,,48,50,192,34,51,49,161,37*4C
$GPGLL,3345.20360,N,11806.77094,W,161100.00,A,A*79
$GPRMC,161101.00,A,3345.20230,N,11806.77129,W,4.982,192.69,140522,,,A*7E
$GPVTG,192.69,T,,M,4.982,N,9.227,K,A*31
$GPGGA,161101.00,3345.20230,N,11806.77129,W,1,09,0.96,-2.0,M,-33.1,M,,*4B
$GPGSA,A,3,17,19,14,13,30,15,01,07,06,,,,1.66,0.96,1.36*06
$GPGSV,4,1,15,01,22,058,35,06,15,167,24,07,18,132,48,13,47,253,48*7D
$GPGSV,4,2,15,14,54,041,37,15,25,289,43,17,87,091,39,19,64,210,34*7C
$GPGSV,4,3,15,21,04,035,33,24,06,315,30,28,62,352,41,30,45,129,42*7E
$GPGSV,4,4,15,46,49,199,,48,50,192,31,51,49,161,37*49
$GPGLL,3345.20230,N,11806.77129,W,161101.00,A,A*7B
$GPRMC,161102.00,A,3345.20100,N,11806.77165,W,4.963,193.20,140522,,,A*76
$GPVTG,193.20,T,,M,4.963,N,9.192,K,A*3F
$GPGGA,161102.00,3345.20100,N,11806.77165,W,1,09,0.96,-2.0,M,-33.1,M,,*40
$GPGSA,A,3,17,19,14,13,30,15,01,07,06,,,,1.66,0.96,1.36*06
$GPGSV,4,1,15,01,22,058,36,06,15,167,25,07,18,132,49,13,47,253,46*70
$GPGSV,4,2,15,14,54,041,37,15,25,289,43,17,87,091,39,19,64,210,35*7D
$GPGSV,4,3,15,21,04,035,36,24,06,315,30,28,62,352,42,30,45,129,42*78
$GPGSV,4,4,15,46,49,199,,48,50,192,34,51,49,161,37*4C
$GPGLL,3345.20100,N,11806.77165,W,161102.00,A,A*70
$GPRMC,161103.00,A,3345.19969,N,11806.77202,W,4.897,192.71,140522,,,A*77
$GPVTG,192.71,T,,M,4.897,N,9.068,K,A*34
$GPGGA,161103.00,3345.19969,N,11806.77202,W,1,09,0.96,-2.1,M,-33.1,M,,*4F
$GPGSA,A,3,17,19,14,13,30,15,01,07,06,,,,1.66,0.96,1.36*06
$GPGSV,4,1,15,01,22,058,33,06,15,167,25,07,18,132,48,13,47,253,47*75
$GPGSV,4,2,15,14,54,041,31,15,25,289,45,17,87,091,39,19,64,210,35*7D
$GPGSV,4,3,15,21,04,035,36,24,06,315,30,28,62,352,41,30,45,129,43*7A
$GPGSV,4,4,15,46,49,199,,48,50,192,34,51,49,161,37*4C
$GPGLL,3345.19969,N,11806.77202,W,161103.00,A,A*7E
$GPRMC,161104.00,A,3345.19840,N,11806.77237,W,4.871,192.88,140522,,,A*72
$GPVTG,192.88,T,,M,4.871,N,9.021,K,A*37
$GPGGA,161104.00,3345.19840,N,11806.77237,W,1,09,0.96,-2.2,M,-33.1,M,,*47
$GPGSA,A,3,17,19,14,13,30,15,01,07,06,,,,1.66,0.96,1.36*06
$GPGSV,4,1,15,01,22,058,31,06,15,167,23,07,18,132,48,13,47,253,47*71
$GPGSV,4,2,15,14,54,041,37,15,25,289,44,17,87,091,37,19,64,210,36*77
$GPGSV,4,3,15,21,04,035,36,24,06,315,30,28,62,352,41,30,45,129,42*7B
$GPGSV,4,4,15,46,49,199,,48,50,192,30,51,49,161,37*48
$GPGLL,3345.19840,N,11806.77237,W,161104.00,A,A*75
$GPRMC,161105.00,A,3345.19709,N,11806.77273,W,4.909,193.01,140522,,,A*7F
$GPVTG,193.01,T,,M,4.909,N,9.091,K,A*32
$GPGGA,161105.00,3345.19709,N,11806.77273,W,1,09,0.96,-2.2,M,-33.1,M,,*44
$GPGSA,A,3,17,19,14,13,30,15,01,07,06,,,,1.66,0.96,1.36*06
$GPGSV,4,1,15,01,22,058,32,06,15,167,30,07,18,132,48,13,47,253,46*71
$GPGSV,4,2,15,14,54,041,36,15,25,289,46,17,87,091,38,19,64,210,32*7F
$GPGSV,4,3,15,21,04,035,36,24,06,315,29,28,62,352,42,30,45,129,43*71
$GPGSV,4,4,15,46,49,199,,48,50,192,32,51,49,161,40*4A
$GPGLL,3345.19709,N,11806.77273,W,161105.00,A,A*76
$GPRMC,161106.00,A,3345.19579,N,11806.77309,W,4.938,192.78,140522,,,A*78
$GPVTG,192.78,T,,M,4.938,N,9.145,K,A*37
$GPGGA,161106.00,3345.19579,N,11806.77309,W,1,09,0.96,-2.3,M,-33.1,M,,*4F
$GPGSA,A,3,17,19,14,13,30,15,01,07,06,,,,1.66,0.96,1.36*06
$GPGSV,4,1,15,01,22,058,32,06,15,167,24,07,18,132,48,13,47,253,47*75
$GPGSV,4,2,15,14,54,041,36,15,25,289,46,17,87,091,39,19,64,210,36*7A
$GPGSV,4,3,15,21,04,035,32,24,06,315,29,28,62,352,40,30,45,129,42*76
$GPGSV,4,4,15,46,49,199,,48,50,192,33,51,49,161,40*4B
$GPGLL,3345.19579,N,11806.77309,W,161106.00,A,A*7C
$GPRMC,161107.00,A,3345.19448,N,11806.77346,W,4.853,193.32,140522,,,A*72
$GPVTG,193.32,T,,M,4.853,N,8.987,K,A*33
$GPGGA,161107.00,3345.19448,N,11806.77346,W,1,09,0.96,-2.3,M,-33.1,M,,*46
$GPGSA,A,3,17,19,14,13,30,15,01,07,06,,,,1.66,0.96,1.36*06
$GPGSV,4,1,15,01,22,058,36,06,15,167,24,07,18,132,48,13,47,252,45*72
$GPGSV,4,2,15,14,54,041,33,15,25,289,46,17,87,091,36,19,64,210,34*72
$GPGSV,4,3,15,21,04,035,32,24,06,315,30,28,62,352,41,30,45,129,42*7F
$GPGSV,4,4,15,46,49,199,,48,50,192,33,51,49,161,40*4B
$GPGLL,3345.19448,N,11806.77346,W,161107.00,A,A*75
$GPRMC,161108.00,A,3345.19316,N,11806.77385,W,4.915,193.53,140522,,,A*7A
$GPVTG,193.53,T,,M,4.915,N,9.102,K,A*33
$GPGGA,161108.00,3345.19316,N,11806.77385,W,1,09,0.96,-2.4,M,-33.1,M,,*4D
$GPGSA,A,3,17,19,14,13,30,15,01,07,06,,,,1.66,0.96,1.36*06
$GPGSV,4,1,15,01,22,058,35,06,15,167,26,07,18,132,48,13,47,252,46*70
$GPGSV,4,2,15,14,53,042,36,15,25,289,46,17,87,091,39,19,64,210,36*7E
$GPGSV,4,3,15,21,04,035,27,24,06,315,29,28,62,352,41,30,45,129,45*74
$GPGSV,4,4,15,46,49,199,,48,50,192,34,51,49,161,40*4C
$GPGLL,3345.19316,N,11806.77385,W,161108.00,A,A*79
$GPRMC,161109.00,A,3345.19184,N,11806.77425,W,4.850,194.47,140522,,,A*7D
$GPVTG,194.47,T,,M,4.850,N,8.982,K,A*30
$GPGGA,161109.00,3345.19184,N,11806.77425,W,1,09,0.96,-2.4,M,-33.1,M,,*48
$GPGSA,A,3,17,19,14,13,30,15,01,07,06,,,,1.66,0.96,1.36*06
$GPGSV,4,1,15,01,22,058,34,06,15,167,24,07,18,132,49,13,47,252,46*72
$GPGSV,4,2,15,14,53,042,38,15,25,288,45,17,87,091,39,19,64,210,35*71
$GPGSV,4,3,15,21,04,035,28,24,06,315,33,28,62,352,40,30,45,129,45*71
$GPGSV,4,4,15,46,49,199,,48,50,192,35,51,49,161,41*4C
$GPGLL,3345.19184,N,11806.77425,W,161109.00,A,A*7C
$GPRMC,161110.00,A,3345.19054,N,11806.77465,W,4.857,194.76,140522,,,A*78
$GPVTG,194.76,T,,M,4.857,N,8.995,K,A*33
$GPGGA,161110.00,3345.19054,N,11806.77465,W,1,09,0.96,-2.4,M,-33.1,M,,*48
$GPGSA,A,3,17,19,14,13,30,15,01,07,06,,,,1.66,0.96,1.36*06
$GPGSV,4,1,15,01,22,058,33,06,15,167,23,07,18,132,49,13,47,252,46*72
$GPGSV,4,2,15,14,53,042,33,15,25,288,45,17,87,091,39,19,64,210,32*7D
$GPGSV,4,3,15,21,04,035,32,24,06,315,32,28,62,352,41,30,45,129,43*7C
$GPGSV,4,4,15,46,49,199,,48,50,192,33,51,49,161,42*49
$GPGLL,3345.19054,N,11806.77465,W,161110.00,A,A*7C
$GPRMC,161111.00,A,3345.18924,N,11806.77509,W,4.845,195.73,140522,,,A*7A
$GPVTG,195.73,T,,M,4.845,N,8.973,K,A*3C
$GPGGA,161111.00,3345.18924,N,11806.77509,W,1,09,0.96,-2.4,M,-33.1,M,,*4D
$GPGSA,A,3,17,19,14,13,30,15,01,07,06,,,,1.66,0.96,1.36*06
$GPGSV,4,1,15,01,22,058,33,06,15,167,30,07,18,132,48,13,47,252,46*71
$GPGSV,4,2,15,14,53,042,33,15,25,288,43,17,87,083,39,19,64,210,33*79
$GPGSV,4,3,15,21,04,035,32,24,06,315,30,28,62,352,40,30,45,129,42*7E
$GPGSV,4,4,15,46,49,199,34,48,50,192,32,51,49,161,42*4F
$GPGLL,3345.18924,N,11806.77509,W,161111.00,A,A*79
$GPRMC,161112.00,A,3345.18795,N,11806.77555,W,4.721,196.49,140522,,,A*73
$GPVTG,196.49,T,,M,4.721,N,8.743,K,A*36
$GPGGA,161112.00,3345.18795,N,11806.77555,W,1,09,0.96,-2.4,M,-33.1,M,,*43
$GPGSA,A,3,17,19,14,13,30,15,01,07,06,,,,1.66,0.96,1.36*06
$GPGSV,4,1,15,01,22,058,36,06,15,167,24,07,18,132,48,13,47,252,45*72
$GPGSV,4,2,15,14,53,042,32,15,25,288,43,17,87,083,38,19,64,210,36*7C
$GPGSV,4,3,15,21,04,035,35,24,06,315,30,28,62,352,40,30,45,129,43*78
$GPGSV,4,4,15,46,49,199,36,48,50,192,31,51,49,161,42*4E
$GPGLL,3345.18795,N,11806.77555,W,161112.00,A,A*77
$GPRMC,161113.00,A,3345.18669,N,11806.77601,W,4.804,196.83,140522,,,A*7C
$GPVTG,196.83,T,,M,4.804,N,8.896,K,A*3F
$GPGGA,161113.00,3345.18669,N,11806.77601,W,1,09,0.96,-2.4,M,-33.1,M,,*42
$GPGSA,A,3,17,19,14,13,30,15,01,07,06,,,,1.66,0.96,1.36*06
$GPGSV,4,1,15,01,22,058,36,06,15,167,31,07,18,132,49,13,47,252,48*7A
$GPGSV,4,2,15,14,53,042,34,15,25,288,41,17,87,083,40,19,65,211,36*77
$GPGSV,4,3,15,21,04,035,33,24,06,315,29,28,62,352,41,30,45,129,43*77
$GPGSV,4,4,15,46,49,199,37,48,50,192,32,51,49,161,41*4F
$GPGLL,3345.18669,N,11806.77601,W,161113.00,A,A*76
$GPRMC,161114.00,A,3345.18541,N,11806.77651,W,4.880,197.41,140522,,,A*74
$GPVTG,197.41,T,,M,4.880,N,9.038,K,A*31
$GPGGA,161114.00,3345.18541,N,11806.77651,W,1,09,0.96,-2.4,M,-33.1,M,,*49
$GPGSA,A,3,17,19,14,13,30,15,01,07,06,,,,1.66,0.96,1.36*06
$GPGSV,4,1,15,01,22,058,34,06,15,167,35,07,18,132,49,13,47,252,47*73
$GPGSV,4,2,15,14,53,042,38,15,25,288,41,17,87,083,38,19,65,211,32*70
$GPGSV,4,3,15,21,04,035,34,24,06,315,30,28,62,352,41,30,45,129,42*79
$GPGSV,4,4,15,46,49,199,37,48,50,192,32,51,49,161,42*4C
$GPGLL,3345.18541,N,11806.77651,W,161114.00,A,A*7D
$GPRMC,161115.00,A,3345.18414,N,11806.77704,W,4.689,198.58,140522,,,A*75
$GPVTG,198.58,T,,M,4.689,N,8.685,K,A*30
$GPGGA,161115.00,3345.18414,N,11806.77704,W,1,09,0.96,-2.5,M,-33.1,M,,*49
$GPGSA,A,3,17,19,14,13,30,15,01,07,06,,,,1.66,0.96,1.36*06
$GPGSV,4,1,15,01,22,058,35,06,15,167,35,07,18,132,49,13,47,252,47*72
$GPGSV,4,2,15,14,53,042,33,15,25,288,45,17,87,083,40,19,65,211,34*76
$GPGSV,4,3,15,21,04,035,34,24,06,315,29,28,62,352,40,30,45,129,45*77
$GPGSV,4,4,15,46,49,199,35,48,50,192,31,51,49,161,42*4D
$GPGLL,3345.18414,N,11806.77704,W,161115.00,A,A*7C
$GPRMC,161116.00,A,3345.18286,N,11806.77752,W,4.789,197.20,140522,,,A*79
$GPVTG,197.20,T,,M,4.789,N,8.870,K,A*35
$GPGGA,161116.00,3345.18286,N,11806.77752,W,1,09,0.96,-2.5,M,-33.1,M,,*44
$GPGSA,A,3,17,19,14,13,30,15,01,07,06,,,,1.66,0.96,1.36*06
$GPGSV,4,1,15,01,22,058,35,06,15,167,34,07,18,132,49,13,47,252,49*7D
$GPGSV,4,2,15,14,53,042,36,15,25,288,43,17,87,083,36,19,65,211,37*77
$GPGSV,4,3,15,21,04,035,35,24,06,315,32,28,62,352,40,30,45,129,44*7D
$GPGSV,4,4,15,46,49,199,34,48,50,192,33,51,49,161,43*4F
$GPGLL,3345.18286,N,11806.77752,W,161116.00,A,A*71
$GPRMC,161117.00,A,3345.18157,N,11806.77802,W,4.837,197.90,140522,,,A*7C
$GPVTG,197.90,T,,M,4.837,N,8.959,K,A*3E
$GPGGA,161117.00,3345.18157,N,11806.77802,W,1,09,0.96,-2.5,M,-33.1,M,,*40
$GPGSA,A,3,17,19,14,13,30,15,01,07,06,,,,1.66,0.96,1.36*06
$GPGSV,4,1,15,01,22,058,35,06,15,167,38,07,18,132,49,13,47,252,49*71
$GPGSV,4,2,15,14,53,042,36,15,25,288,44,17,87,083,39,19,65,211,37*7F
$GPGSV,4,3,15,21,04,035,35,24,06,315,31,28,62,352,39,30,45,129,43*77
$GPGSV,4,4,15,46,49,199,29,48,50,192,33,51,49,161,42*42
$GPGLL,3345.18157,N,11806.77802,W,161117.00,A,A*75
$GPRMC,161118.00,A,3345.18031,N,11806.77852,W,4.825,197.99,140522,,,A*7D
$GPVTG,197.99,T,,M,4.825,N,8.935,K,A*3E
$GPGGA,161118.00,3345.18031,N,11806.77852,W,1,09,0.96,-2.6,M,-33.1,M,,*48
$GPGSA,A,3,17,19,14,13,30,15,01,07,06,,,,1.66,0.96,1.36*06
$GPGSV,4,1,15,01,22,058,25,06,15,167,35,07,18,132,48,13,47,252,47*72
$GPGSV,4,2,15,14,53,042,36,15,25,288,46,17,87,083,38,19,65,211,37*7C
$GPGSV,4,3,15,21,04,035,26,24,06,315,34,28,62,352,41,30,45,129,43*7F
$GPGSV,4,4,15,46,49,199,28,48,50,192,33,51,49,161,40*41
$GPGLL,3345.18031,N,11806.77852,W,161118.00,A,A*7E
$GPRMC,161119.00,A,3345.17902,N,11806.77906,W,4.869,199.38,140522,,,A*77
$GPVTG,199.38,T,,M,4.869,N,9.018,K,A*34
$GPGGA,161119.00,3345.17902,N,11806.77906,W,1,09,0.96,-2.6,M,-33.1,M,,*4F
$GPGSA,A,3,17,19,14,13,30,15,01,07,06,,,,1.66,0.96,1.36*06
$GPGSV,4,1,15,01,22,058,33,06,15,167,37,07,18,132,48,13,47,252,47*77
$GPGSV,4,2,15,14,53,042,37,15,25,288,43,17,87,083,39,19,65,211,40*79
$GPGSV,4,3,15,21,04,035,26,24,06,315,34,28,62,352,42,30,45,129,41*7E
$GPGSV,4,4,15,46,49,199,,48,50,192,33,51,49,161,40*4B
$GPGLL,3345.17902,N,11806.77906,W,161119.00,A,A*79
$GPRMC,161120.00,A,3345.17779,N,11806.77964,W,4.742,201.73,140522,,,A*70
$GPVTG,201.73,T,,M,4.742,N,8.781,K,A*39
$GPGGA,161120.00,3345.17779,N,11806.77964,W,1,09,0.96,-2.7,M,-33.1,M,,*42
$GPGSA,A,3,17,19,14,13,30,15,01,07,06,,,,1.66,0.96,1.36*06
$GPGSV,4,1,15,01,22,058,33,06,15,167,38,07,18,132,49,13,47,252,44*7A
$GPGSV,4,2,15,14,53,042,37,15,25,288,44,17,87,083,38,19,65,211,39*71
$GPGSV,4,3,15,21,04,035,24,24,06,315,33,28,62,352,42,30,45,129,41*7B
$GPGSV,4,4,15,46,49,199,,48,50,192,36,51,49,161,35*4C
$GPGLL,3345.17779,N,11806.77964,W,161120.00,A,A*75
$GPRMC,161121.00,A,3345.17658,N,11806.78028,W,4.782,203.58,140522,,,A*7A
$GPVTG,203.58,T,,M,4.782,N,8.856,K,A*3B
$GPGGA,161121.00,3345.17658,N,11806.78028,W,1,09,0.96,-2.7,M,-33.1,M,,*4F
$GPGSA,A,3,17,19,14,13,30,15,01,07,06,,,,1.66,0.96,1.36*06
$GPGSV,4,1,15,01,22,058,29,06,15,167,34,07,18,132,50,13,47,252,42*73
$GPGSV,4,2,15,14,53,042,38,15,25,288,46,17,87,083,39,19,65,211,40*73
$GPGSV,4,3,15,21,04,035,31,24,06,315,32,28,62,352,40,30,45,129,35*7F
$GPGSV,4,4,15,46,49,199,,48,50,192,38,51,49,161,32*45
$GPGLL,3345.17658,N,11806.78028,W,161121.00,A,A*78
$GPRMC,161122.00,A,3345.17532,N,11806.78095,W,4.810,204.04,140522,,,A*7A
$GPVTG,204.04,T,,M,4.810,N,8.908,K,A*3B
$GPGGA,161122.00,3345.17532,N,11806.78095,W,1,09,0.96,-2.6,M,-33.1,M,,*44
$GPGSA,A,3,17,19,14,13,30,15,01,07,06,,,,1.66,0.96,1.36*06
$GPGSV,4,1,15,01,22,058,40,06,15,167,40,07,18,132,50,13,47,252,44*79
$GPGSV,4,2,15,14,53,042,41,15,25,288,42,17,87,083,38,19,65,211,40*78
$GPGSV,4,3,15,21,04,035,30,24,06,315,33,28,62,353,41,30,45,129,41*7C
$GPGSV,4,4,15,46,49,199,,48,50,192,41,51,49,161,39*40
$GPGLL,3345.17532,N,11806.78095,W,161122.00,A,A*72
$GPRMC,161123.00,A,3345.17411,N,11806.78166,W,4.840,205.69,140522,,,A*79
$GPVTG,205.69,T,,M,4.840,N,8.964,K,A*3E
$GPGGA,161123.00,3345.17411,N,11806.78166,W,1,09,0.96,-2.7,M,-33.1,M,,*49
$GPGSA,A,3,17,19,14,13,30,15,01,07,06,,,,1.66,0.96,1.36*06
$GPGSV,4,1,15,01,22,058,40,06,15,167,36,07,18,132,49,13,47,252,45*71
$GPGSV,4,2,15,14,53,042,41,15,25,288,42,17,87,083,39,19,65,211,41*78
$GPGSV,4,3,15,21,04,035,30,24,06,315,37,28,62,353,42,30,45,129,41*7B
$GPGSV,4,4,15,46,49,199,,48,50,192,39,51,49,161,39*4F
$GPGLL,3345.17411,N,11806.78166,W,161123.00,A,A*7E
$GPRMC,161124.00,A,3345.17297,N,11806.78238,W,4.704,207.47,140522,,,A*7F
$GPVTG,207.47,T,,M,4.704,N,8.712,K,A*30
$GPGGA,161124.00,3345.17297,N,11806.78238,W,1,09,0.96,-2.8,M,-33.1,M,,*41
$GPGSA,A,3,17,19,14,13,30,15,01,07,06,,,,1.66,0.96,1.36*06
$GPGSV,4,1,15,01,22,058,40,06,15,167,43,07,18,132,48,13,47,252,44*73
$GPGSV,4,2,15,14,53,042,41,15,25,288,36,17,87,083,39,19,65,211,41*7B
$GPGSV,4,3,15,21,04,035,30,24,06,315,36,28,62,353,42,30,45,129,41*7A
$GPGSV,4,4,15,46,49,199,,48,50,192,41,51,49,161,38*41
$GPGLL,3345.17297,N,11806.78238,W,161124.00,A,A*79
$GPRMC,161125.00,A,3345.17186,N,11806.78316,W,4.727,210.29,140522,,,A*7F
$GPVTG,210.29,T,,M,4.727,N,8.755,K,A*3C
$GPGGA,161125.00,3345.17186,N,11806.78316,W,1,09,0.96,-2.8,M,-33.1,M,,*4E
$GPGSA,A,3,17,19,14,13,30,15,01,07,06,,,,1.66,0.96,1.36*06
$GPGSV,4,1,15,01,22,058,40,06,15,167,42,07,18,132,49,13,47,252,43*74
$GPGSV,4,2,15,14,53,042,41,15,25,288,40,17,87,083,39,19,65,211,39*75
$GPGSV,4,3,15,21,04,035,30,24,06,315,28,28,62,353,42,30,45,129,40*74
$GPGSV,4,4,15,46,49,199,,48,50,192,42,51,49,161,40*4D
$GPGLL,3345.17186,N,11806.78316,W,161125.00,A,A*76
$GPRMC,161126.00,A,3345.17078,N,11806.78399,W,4.717,211.64,140522,,,A*70
$GPVTG,211.64,T,,M,4.717,N,8.736,K,A*32
$GPGGA,161126.00,3345.17078,N,11806.78399,W,1,09,0.96,-2.9,M,-33.1,M,,*4B
$GPGSA,A,3,17,19,14,13,30,15,01,07,06,,,,1.66,0.96,1.36*06
$GPGSV,4,1,15,01,22,058,41,06,15,167,40,07,18,132,50,13,47,252,40*7C
$GPGSV,4,2,15,14,53,042,39,15,25,288,40,17,87,083,39,19,65,211,40*74
$GPGSV,4,3,15,21,04,035,29,24,06,315,32,28,62,353,42,30,45,129,38*78
$GPGSV,4,4,15,46,49,199,,48,50,192,41,51,49,161,40*4E
$GPGLL,3345.17078,N,11806.78399,W,161126.00,A,A*72
$GPRMC,161127.00,A,3345.16967,N,11806.78484,W,4.721,212.57,140522,,,A*7A
$GPVTG,212.57,T,,M,4.721,N,8.744,K,A*31
$GPGGA,161127.00,3345.16967,N,11806.78484,W,1,09,0.96,-3.0,M,-33.1,M,,*4F
$GPGSA,A,3,17,19,14,13,30,15,01,07,06,,,,1.66,0.96,1.36*06
$GPGSV,4,1,15,01,22,058,40,06,15,167,38,07,18,132,49,13,47,252,40*7A
$GPGSV,4,2,15,14,53,042,40,15,25,288,42,17,87,083,38,19,65,211,40*79
$GPGSV,4,3,15,21,04,035,28,24,06,315,36,28,62,353,41,30,45,129,37*71
$GPGSV,4,4,15,46,49,199,,48,50,192,39,51,49,161,39*4F
$GPGLL,3345.16967,N,11806.78484,W,161127.00,A,A*7E
$GPRMC,161128.00,A,3345.16857,N,11806.78574,W,4.726,214.40,140522,,,A*7E
$GPVTG,214.40,T,,M,4.726,N,8.752,K,A*31
$GPGGA,161128.00,3345.16857,N,11806.78574,W,1,09,0.96,-3.0,M,-33.1,M,,*4C
$GPGSA,A,3,17,19,14,13,30,15,01,07,06,,,,1.66,0.96,1.36*06
$GPGSV,4,1,15,01,22,058,39,06,15,167,41,07,18,132,49,13,47,252,41*7B
$GPGSV,4,2,15,14,53,042,39,15,25,288,39,17,87,083,38,19,65,211,37*7B
$GPGSV,4,3,15,21,04,035,28,24,06,315,32,28,62,353,42,30,45,129,37*76
$GPGSV,4,4,15,46,49,199,36,48,50,192,39,51,49,161,38*4B
$GPGLL,3345.16857,N,11806.78574,W,161128.00,A,A*7D
$GPRMC,161129.00,A,3345.16750,N,11806.78668,W,4.718,216.30,140522,,,A*71
$GPVTG,216.30,T,,M,4.718,N,8.738,K,A*35
$GPGGA,161129.00,3345.16750,N,11806.78668,W,1,09,0.96,-3.0,M,-33.1,M,,*4B
$GPGSA,A,3,17,19,14,13,30,15,01,07,06,,,,1.66,0.96,1.36*06
$GPGSV,4,1,15,01,22,058,39,06,15,167,42,07,18,132,49,13,47,252,39*77
$GPGSV,4,2,15,14,53,042,38,15,25,288,40,17,87,083,40,19,65,211,37*7B
$GPGSV,4,3,15,21,04,035,26,24,06,315,35,28,62,353,41,30,45,129,34*7F
$GPGSV,4,4,15,46,49,199,42,48,50,192,40,51,49,161,40*49
$GPGLL,3345.16750,N,11806.78668,W,161129.00,A,A*7A
$GPRMC,161130.00,A,3345.16643,N,11806.78763,W,4.680,216.91,140522,,,A*7B
$GPVTG,216.91,T,,M,4.680,N,8.667,K,A*35
$GPGGA,161130.00,3345.16643,N,11806.78763,W,1,09,0.96,-3.0,M,-33.1,M,,*4A
$GPGSA,A,3,17,19,14,13,30,15,01,07,06,,,,1.66,0.96,1.36*06
$GPGSV,4,1,15,01,22,058,39,06,15,167,42,07,18,132,48,13,47,252,38*77
$GPGSV,4,2,15,14,53,042,40,15,25,288,44,17,87,083,36,19,65,211,37*71
$GPGSV,4,3,15,21,04,035,25,24,06,315,36,28,62,353,42,30,45,129,34*7C
$GPGSV,4,4,15,46,49,199,42,48,50,192,38,51,49,161,41*47
$GPGLL,3345.16643,N,11806.78763,W,161130.00,A,A*7B
$GPRMC,161131.00,A,3345.16539,N,11806.78861,W,4.713,217.49,140522,,,A*76
$GPVTG,217.49,T,,M,4.713,N,8.728,K,A*30
$GPGGA,161131.00,3345.16539,N,11806.78861,W,1,10,0.86,-3.1,M,-33.1,M,,*40
$GPGSA,A,3,17,19,14,13,30,15,01,07,06,24,,,1.39,0.86,1.10*0F
$GPGSV,4,1,15,01,22,058,40,06,15,167,42,07,18,132,48,13,47,252,39*78
$GPGSV,4,2,15,14,53,042,38,15,25,288,44,17,87,083,37,19,65,211,34*7C
$GPGSV,4,3,15,21,04,035,25,24,06,315,34,28,62,353,42,30,45,129,37*7D
$GPGSV,4,4,15,46,49,199,43,48,50,192,38,51,49,161,42*45
$GPGLL,3345.16539,N,11806.78861,W,161131.00,A,A*79
$GPRMC,161132.00,A,3345.16436,N,11806.78959,W,4.624,217.25,140522,,,A*7E
$GPVTG,217.25,T,,M,4.624,N,8.564,K,A*35
$GPGGA,161132.00,3345.16436,N,11806.78959,W,1,10,0.86,-3.3,M,-33.1,M,,*45
$GPGSA,A,3,17,19,14,13,30,15,01,07,06,24,,,1.39,0.86,1.10*0F
$GPGSV,4,1,15,01,22,058,40,06,15,167,44,07,18,132,47,13,47,252,40*7F
$GPGSV,4,2,15,14,53,042,38,15,25,288,44,17,87,083,39,19,65,211,33*75
$GPGSV,4,3,15,21,04,035,25,24,06,315,37,28,62,353,42,30,45,129,39*70
$GPGSV,4,4,15,46,49,199,42,48,50,192,39,51,49,161,42*45
$GPGLL,3345.16436,N,11806.78959,W,161132.00,A,A*7E
$GPRMC,161133.00,A,3345.16333,N,11806.79057,W,4.706,218.20,140522,,,A*70
$GPVTG,218.20,T,,M,4.706,N,8.715,K,A*3A
$GPGGA,161133.00,3345.16333,N,11806.79057,W,1,10,0.86,-3.4,M,-33.1,M,,*47
$GPGSA,A,3,17,19,14,13,30,15,01,07,06,24,,,1.39,0.86,1.10*0F
$GPGSV,4,1,15,01,22,058,40,06,15,167,43,07,18,132,48,13,47,252,39*79
$GPGSV,4,2,15,14,53,042,36,15,25,288,42,17,87,083,39,19,65,211,34*7A
$GPGSV,4,3,15,21,04,035,25,24,06,315,35,28,62,353,41,30,45,129,31*79
$GPGSV,4,4,15,46,49,199,42,48,50,192,38,51,49,161,43*45
$GPGLL,3345.16333,N,11806.79057,W,161133.00,A,A*7B
$GPRMC,161134.00,A,3345.16229,N,11806.79157,W,4.689,218.69,140522,,,A*77
$GPVTG,218.69,T,,M,4.689,N,8.684,K,A*38
$GPGGA,161134.00,3345.16229,N,11806.79157,W,1,10,0.86,-3.4,M,-33.1,M,,*4B
$GPGSA,A,3,17,19,14,13,30,15,01,07,06,24,,,1.39,0.86,1.10*0F
$GPGSV,4,1,15,01,22,058,41,06,15,167,43,07,18,132,47,13,47,252,38*76
$GPGSV,4,2,15,14,53,042,38,15,25,288,45,17,87,083,38,19,65,211,34*72
$GPGSV,4,3,15,21,04,035,26,24,06,315,35,28,62,353,42,30,45,129,32*7A
$GPGSV,4,4,15,46,49,199,42,48,50,192,38,51,49,161,42*44
$GPGLL,3345.16229,N,11806.79157,W,161134.00,A,A*77
$GPRMC,161135.00,A,3345.16125,N,11806.79254,W,4.694,217.49,140522,,,A*78
$GPVTG,217.49,T,,M,4.694,N,8.694,K,A*38
$GPGGA,161135.00,3345.16125,N,11806.79254,W,1,10,0.86,-3.5,M,-33.1,M,,*44
$GPGSA,A,3,17,19,14,13,30,15,01,07,06,24,,,1.39,0.86,1.10*0F
$GPGSV,4,1,15,01,22,058,40,06,15,167,42,07,18,132,47,13,47,252,40*79
$GPGSV,4,2,15,14,53,042,35,15,25,288,44,17,87,083,38,19,65,211,34*7E
$GPGSV,4,3,15,21,04,035,27,24,06,315,39,28,62,353,42,30,45,129,26*72
$GPGSV,4,4,15,46,49,199,42,48,50,192,40,51,49,161,43*4A
$GPGLL,3345.16125,N,11806.79254,W,161135.00,A,A*79
$GPRMC,161136.00,A,3345.16019,N,11806.79353,W,4.709,218.50,140522,,,A*71
$GPVTG,218.50,T,,M,4.709,N,8.721,K,A*35
$GPGGA,161136.00,3345.16019,N,11806.79353,W,1,10,0.86,-3.5,M,-33.1,M,,*4F
$GPGSA,A,3,17,19,14,13,30,15,01,07,06,24,,,1.39,0.86,1.10*0F
$GPGSV,4,1,15,01,22,058,41,06,15,167,42,07,18,132,48,13,47,252,40*77
$GPGSV,4,2,15,14,53,042,38,15,25,288,45,17,87,083,38,19,65,211,32*74
$GPGSV,4,3,15,21,04,035,27,24,06,315,36,28,62,353,42,30,45,129,27*7C
$GPGSV,4,4,15,46,49,199,43,48,50,192,39,51,49,161,42*44
$GPGLL,3345.16019,N,11806.79353,W,161136.00,A,A*72
$GPRMC,161137.00,A,3345.15915,N,11806.79453,W,4.739,218.72,140522,,,A*72
$GPVTG,218.72,T,,M,4.739,N,8.777,K,A*35
$GPGGA,161137.00,3345.15915,N,11806.79453,W,1,10,0.86,-3.6,M,-33.1,M,,*4C
$GPGSA,A,3,17,19,14,13,30,15,01,07,06,24,,,1.39,0.86,1.10*0F
$GPGSV,4,1,15,01,22,058,41,06,15,167,40,07,18,132,48,13,47,252,38*7A
$GPGSV,4,2,15,14,53,042,38,15,25,288,44,17,87,083,39,19,65,211,33*75
$GPGSV,4,3,15,21,04,035,31,24,06,315,38,28,62,353,43,30,45,129,28*7B
$GPGSV,4,4,15,46,49,199,42,48,50,192,36,51,49,161,42*4A
$GPGLL,3345.15915,N,11806.79453,W,161137.00,A,A*72
$GPRMC,161138.00,A,3345.15811,N,11806.79551,W,4.670,218.52,140522,,,A*75
$GPVTG,218.52,T,,M,4.670,N,8.649,K,A*37
$GPGGA,161138.00,3345.15811,N,11806.79551,W,1,10,0.86,-3.6,M,-33.1,M,,*45
$GPGSA,A,3,17,19,14,13,30,15,01,07,06,24,,,1.39,0.86,1.10*0F
$GPGSV,4,1,15,01,22,058,40,06,15,167,43,07,18,132,48,13,47,252,40*77
$GPGSV,4,2,15,14,53,042,36,15,25,288,44,17,87,083,39,19,65,211,28*71
$GPGSV,4,3,15,21,04,035,31,24,06,315,33,28,62,353,41,30,45,129,28*72
$GPGSV,4,4,15,46,49,199,43,48,50,192,36,51,49,161,42*4B
$GPGLL,3345.15811,N,11806.79551,W,161138.00,A,A*7B
$GPRMC,161139.00,A,3345.15709,N,11806.79650,W,4.672,219.53,140522,,,A*72
$GPVTG,219.53,T,,M,4.672,N,8.653,K,A*3E
$GPGGA,161139.00,3345.15709,N,11806.79650,W,1,10,0.86,-3.5,M,-33.1,M,,*43
$GPGSA,A,3,17,19,14,13,30,15,01,07,06,24,,,1.39,0.86,1.10*0F
$GPGSV,4,1,15,01,22,058,39,06,15,167,44,07,18,132,48,13,47,252,39*70
$GPGSV,4,2,15,14,53,042,34,15,25,288,45,17,87,083,39,19,65,211,29*73
$GPGSV,4,3,15,21,04,035,35,24,06,315,28,28,62,353,41,30,45,129,28*7C
$GPGSV,4,4,15,46,49,199,42,48,50,192,35,51,49,161,42*49
$GPGLL,3345.15709,N,11806.79650,W,161139.00,A,A*7E
$GPRMC,161140.00,A,3345.15609,N,11806.79750,W,4.699,220.18,140522,,,A*7C
$GPVTG,220.18,T,,M,4.699,N,8.702,K,A*3B
$GPGGA,161140.00,3345.15609,N,11806.79750,W,1,10,0.86,-3.5,M,-33.1,M,,*4D
$GPGSA,A,3,17,19,14,13,30,15,01,07,06,24,,,1.39,0.86,1.10*0F
$GPGSV,4,1,15,01,22,058,39,06,15,167,42,07,18,132,49,13,47,252,39*77
$GPGSV,4,2,15,14,53,042,33,15,25,288,44,17,87,083,39,19,65,211,29*75
$GPGSV,4,3,15,21,04,035,35,24,06,315,29,28,62,353,41,30,45,129,32*76
$GPGSV,4,4,15,46,49,199,43,48,50,192,39,51,49,161,43*45
$GPGLL,3345.15609,N,11806.79750,W,161140.00,A,A*70
$GPRMC,161141.00,A,3345.15510,N,11806.79851,W,4.695,221.04,140522,,,A*78
$GPVTG,221.04,T,,M,4.695,N,8.695,K,A*34
$GPGGA,161141.00,3345.15510,N,11806.79851,W,1,10,0.86,-3.4,M,-33.1,M,,*48
$GPGSA,A,3,17,19,14,13,30,15,01,07,06,24,,,1.39,0.86,1.10*0F
$GPGSV,4,1,15,01,22,058,38,06,15,167,41,07,18,132,47,13,47,252,39*7B
$GPGSV,4,2,15,14,53,042,34,15,25,288,47,17,87,083,39,19,65,211,22*7A
$GPGSV,4,3,15,21,04,035,35,24,06,315,28,28,62,353,41,30,45,129,33*76
$GPGSV,4,4,15,46,49,199,43,48,50,192,40,51,49,161,42*4A
$GPGLL,3345.15510,N,11806.79851,W,161141.00,A,A*74
$GPRMC,161142.00,A,3345.15411,N,11806.79953,W,4.708,221.70,140522,,,A*7E
$GPVTG,221.70,T,,M,4.708,N,8.719,K,A*37
$GPGGA,161142.00,3345.15411,N,11806.79953,W,1,10,0.86,-3.3,M,-33.1,M,,*4F
$GPGSA,A,3,17,19,14,13,30,15,01,07,06,24,,,1.39,0.86,1.10*0F
$GPGSV,4,1,15,01,22,058,37,06,15,167,41,07,18,132,48,13,47,252,39*7B
$GPGSV,4,2,15,14,53,042,35,15,25,288,44,17,87,083,39,19,65,211,25*7F
$GPGSV,4,3,15,21,04,035,35,24,06,315,29,28,62,353,41,30,45,129,38*7C
$GPGSV,4,4,15,46,49,199,41,48,50,192,40,51,49,161,42*48
$GPGLL,3345.15411,N,11806.79953,W,161142.00,A,A*74
$GPRMC,161143.00,A,3345.15314,N,11806.80057,W,4.716,222.21,140522,,,A*7E
$GPVTG,222.21,T,,M,4.716,N,8.734,K,A*30
$GPGGA,161143.00,3345.15314,N,11806.80057,W,1,10,0.86,-3.3,M,-33.1,M,,*47
$GPGSA,A,3,17,19,14,13,30,15,01,07,06,24,,,1.39,0.86,1.10*0F
$GPGSV,4,1,15,01,22,058,38,06,15,167,43,07,18,132,48,13,47,252,39*76
$GPGSV,4,2,15,14,53,042,34,15,25,288,46,17,87,083,39,19,65,211,25*7C
$GPGSV,4,3,15,21,04,035,34,24,06,315,29,28,62,353,42,30,45,129,38*7E
$GPGSV,4,4,15,46,49,199,42,48,50,192,41,51,49,161,42*4A
$GPGLL,3345.15314,N,11806.80057,W,161143.00,A,A*7C
$GPRMC,161144.00,A,3345.15217,N,11806.80161,W,4.729,222.48,140522,,,A*7C
$GPVTG,222.48,T,,M,4.729,N,8.758,K,A*39
$GPGGA,161144.00,3345.15217,N,11806.80161,W,1,10,0.86,-3.2,M,-33.1,M,,*47
$GPGSA,A,3,17,19,14,13,30,15,01,07,06,24,,,1.39,0.86,1.10*0F
$GPGSV,4,1,15,01,22,058,38,06,15,167,42,07,18,132,48,13,47,252,41*78
$GPGSV,4,2,15,14,53,042,34,15,25,288,47,17,87,083,39,19,65,211,27*7F
$GPGSV,4,3,15,21,04,035,31,24,06,315,28,28,62,353,40,30,45,129,34*74
$GPGSV,4,4,15,46,49,199,40,48,50,192,40,51,49,161,39*45
$GPGLL,3345.15217,N,11806.80161,W,161144.00,A,A*7D
$GPRMC,161145.00,A,3345.15123,N,11806.80267,W,4.659,224.34,140522,,,A*77
$GPVTG,224.34,T,,M,4.659,N,8.628,K,A*34
$GPGGA,161145.00,3345.15123,N,11806.80267,W,1,10,0.86,-3.0,M,-33.1,M,,*45
$GPGSA,A,3,17,19,14,13,30,15,01,07,06,24,,,1.39,0.86,1.10*0F
$GPGSV,4,1,15,01,22,058,39,06,15,167,43,07,18,132,48,13,47,252,41*78
$GPGSV,4,2,15,14,53,042,38,15,25,288,48,17,87,083,39,19,65,211,28*73
$GPGSV,4,3,15,21,04,035,31,24,06,315,32,28,62,353,38,30,45,129,37*73
$GPGSV,4,4,15,46,49,199,38,48,50,192,41,51,49,161,37*45
$GPGLL,3345.15123,N,11806.80267,W,161145.00,A,A*7D
$GPRMC,161146.00,A,3345.15030,N,11806.80376,W,4.687,225.61,140522,,,A*74
$GPVTG,225.61,T,,M,4.687,N,8.681,K,A*35
$GPGGA,161146.00,3345.15030,N,11806.80376,W,1,10,0.86,-2.9,M,-33.1,M,,*4C
$GPGSA,A,3,17,19,14,13,30,15,01,07,06,24,,,1.39,0.86,1.10*0F
$GPGSV,4,1,15,01,22,058,39,06,15,167,42,07,18,132,46,13,47,252,41*77
$GPGSV,4,2,15,14,53,042,37,15,25,288,47,17,87,083,39,19,65,211,33*79
$GPGSV,4,3,15,21,04,035,31,24,06,315,31,28,62,353,39,30,45,129,38*7E
$GPGSV,4,4,15,46,49,199,38,48,50,192,41,51,49,161,39*4B
$GPGLL,3345.15030,N,11806.80376,W,161146.00,A,A*7C
$GPRMC,161147.00,A,3345.14936,N,11806.80488,W,4.792,225.90,140522,,,A*76
$GPVTG,225.90,T,,M,4.792,N,8.874,K,A*3A
$GPGGA,161147.00,3345.14936,N,11806.80488,W,1,10,0.86,-2.8,M,-33.1,M,,*44
$GPGSA,A,3,17,19,14,13,30,15,01,07,06,24,,,1.39,0.86,1.10*0F
$GPGSV,4,1,15,01,22,058,39,06,15,167,42,07,18,132,49,13,47,252,39*77
$GPGSV,4,2,15,14,53,042,37,15,25,288,47,17,87,083,39,19,65,211,33*79
$GPGSV,4,3,15,21,04,035,32,24,06,315,27,28,62,353,39,30,45,129,39*7B
$GPGSV,4,4,15,46,49,199,38,48,50,192,41,51,49,161,38*4A
$GPGLL,3345.14936,N,11806.80488,W,161147.00,A,A*75
$GPRMC,161148.00,A,3345.14845,N,11806.80601,W,4.667,226.72,140522,,,A*7B
$GPVTG,226.72,T,,M,4.667,N,8.643,K,A*34
$GPGGA,161148.00,3345.14845,N,11806.80601,W,1,10,0.86,-2.7,M,-33.1,M,,*42
$GPGSA,A,3,17,19,14,13,30,15,01,07,06,24,,,1.39,0.86,1.10*0F
$GPGSV,4,1,15,01,22,058,39,06,15,167,42,07,18,132,48,13,47,252,38*77
$GPGSV,4,2,15,14,53,042,37,15,25,288,47,17,87,083,37,19,65,211,33*77
$GPGSV,4,3,15,21,04,035,32,24,06,315,28,28,62,353,39,30,45,129,41*7B
$GPGSV,4,4,15,46,49,199,38,48,50,192,43,51,49,161,38*48
$GPGLL,3345.14845,N,11806.80601,W,161148.00,A,A*7C
